$GPRMC,005452.000,A,2447.0893,N,12100.5190,E,000.0,000.0,050115,,,A*60
$GPRMC,005453.000,A,2447.0893,N,12100.5192,E,000.0,000.0,050115,,,A*63
$GPRMC,005454.000,A,2447.0892,N,12100.5191,E,000.0,000.0,050115,,,A*66
$GPRMC,005455.000,A,2447.0894,N,12100.5195,E,000.0,000.0,050115,,,A*65
$GPRMC,005456.000,A,2447.0892,N,12100.5193,E,000.0,000.0,050115,,,A*66
$GPRMC,005457.000,A,2447.0892,N,12100.5194,E,000.0,000.0,050115,,,A*60
$GPRMC,005458.000,A,2447.0894,N,12100.5197,E,000.0,000.0,050115,,,A*6a
$GPRMC,005459.000,A,2447.0896,N,12100.5192,E,000.0,000.0,050115,,,A*6c
$GPRMC,005500.000,A,2447.0893,N,12100.5195,E,000.0,000.0,050115,,,A*63
$GPRMC,005501.000,A,2447.0893,N,12100.5195,E,000.0,000.0,050115,,,A*62
$GPRMC,005502.000,A,2447.0893,N,12100.5195,E,000.0,000.0,050115,,,A*61
$GPRMC,005503.000,A,2447.0893,N,12100.5195,E,000.0,000.0,050115,,,A*60
$GPRMC,005504.000,A,2447.0893,N,12100.5195,E,000.0,000.0,050115,,,A*67
$GPRMC,005505.000,A,2447.0893,N,12100.5196,E,000.0,000.0,050115,,,A*65
$GPRMC,005506.000,A,2447.0893,N,12100.5196,E,000.0,000.0,050115,,,A*66
$GPRMC,005507.000,A,2447.0893,N,12100.5196,E,000.0,000.0,050115,,,A*67
$GPRMC,005508.000,A,2447.0893,N,12100.5196,E,000.0,000.0,050115,,,A*68
$GPRMC,005509.000,A,2447.0893,N,12100.5196,E,000.0,000.0,050115,,,A*69
$GPRMC,005510.000,A,2447.0893,N,12100.5196,E,000.0,000.0,050115,,,A*61
$GPRMC,005511.000,A,2447.0893,N,12100.5196,E,000.0,000.0,050115,,,A*60
$GPRMC,005512.000,A,2447.0893,N,12100.5196,E,000.0,000.0,050115,,,A*63
$GPRMC,005513.000,A,2447.0893,N,12100.5196,E,000.0,000.0,050115,,,A*62
$GPRMC,005514.000,A,2447.0893,N,12100.5196,E,000.0,000.0,050115,,,A*65
$GPRMC,005515.000,A,2447.0893,N,12100.5196,E,000.0,000.0,050115,,,A*64
$GPRMC,005516.000,A,2447.0893,N,12100.5196,E,000.0,000.0,050115,,,A*67
$GPRMC,005517.000,A,2447.0893,N,12100.5196,E,000.0,000.0,050115,,,A*66
$GPRMC,005518.000,A,2447.0893,N,12100.5196,E,000.0,000.0,050115,,,A*69
$GPRMC,005519.000,A,2447.0893,N,12100.5196,E,000.0,000.0,050115,,,A*68
$GPRMC,005520.000,A,2447.0893,N,12100.5196,E,000.0,000.0,050115,,,A*62
$GPRMC,005528.000,A,2447.0918,N,12100.5205,E,000.0,000.0,050115,,,A*61
$GPRMC,005529.000,A,2447.0919,N,12100.5202,E,000.0,000.0,050115,,,A*66
$GPRMC,005530.000,A,2447.0919,N,12100.5203,E,000.0,000.0,050115,,,A*6f
$GPRMC,005531.000,A,2447.0920,N,12100.5204,E,000.0,000.0,050115,,,A*63
$GPRMC,005532.000,A,2447.0918,N,12100.5202,E,000.0,000.0,050115,,,A*6d
$GPRMC,005533.000,A,2447.0920,N,12100.5205,E,000.0,000.0,050115,,,A*60
$GPRMC,005534.000,A,2447.0916,N,12100.5200,E,000.0,000.0,050115,,,A*67
$GPRMC,005535.000,A,2447.0918,N,12100.5203,E,000.0,000.0,050115,,,A*6b
$GPRMC,005536.000,A,2447.0918,N,12100.5203,E,000.0,000.0,050115,,,A*68
$GPRMC,005537.000,A,2447.0918,N,12100.5203,E,000.0,000.0,050115,,,A*69
$GPRMC,005538.000,A,2447.0916,N,12100.5201,E,000.0,000.0,050115,,,A*6a
$GPRMC,005539.000,A,2447.0916,N,12100.5201,E,000.0,000.0,050115,,,A*6b
$GPRMC,005540.000,A,2447.0916,N,12100.5201,E,000.0,000.0,050115,,,A*65
$GPRMC,005541.000,A,2447.0916,N,12100.5201,E,000.0,000.0,050115,,,A*64
$GPRMC,005542.000,A,2447.0916,N,12100.5201,E,000.0,000.0,050115,,,A*67
$GPRMC,005543.000,A,2447.0916,N,12100.5201,E,000.0,000.0,050115,,,A*66
$GPRMC,005544.000,A,2447.0916,N,12100.5201,E,000.0,000.0,050115,,,A*61
$GPRMC,005545.000,A,2447.0916,N,12100.5201,E,000.0,000.0,050115,,,A*60
$GPRMC,005546.000,A,2447.0916,N,12100.5201,E,000.0,000.0,050115,,,A*63
$GPRMC,005547.000,A,2447.0916,N,12100.5201,E,000.0,000.0,050115,,,A*62
$GPRMC,005548.000,A,2447.0916,N,12100.5201,E,000.0,000.0,050115,,,A*6d
$GPRMC,005549.000,A,2447.0916,N,12100.5201,E,000.0,000.0,050115,,,A*6c
$GPRMC,005550.000,A,2447.0916,N,12100.5201,E,000.0,000.0,050115,,,A*64
$GPRMC,005551.000,A,2447.0916,N,12100.5201,E,000.0,000.0,050115,,,A*65
$GPRMC,005552.000,A,2447.0916,N,12100.5201,E,000.0,000.0,050115,,,A*66
$GPRMC,005553.000,A,2447.0916,N,12100.5201,E,000.0,000.0,050115,,,A*67
$GPRMC,005554.000,A,2447.0916,N,12100.5201,E,000.0,000.0,050115,,,A*60
$GPRMC,005555.000,A,2447.0916,N,12100.5201,E,000.0,000.0,050115,,,A*61
$GPRMC,005603.000,A,2447.0797,N,12100.5242,E,000.0,000.0,050115,,,A*61
$GPRMC,005604.000,A,2447.0821,N,12100.5225,E,000.0,000.0,050115,,,A*65
$GPRMC,005605.000,A,2447.0822,N,12100.5224,E,000.0,000.0,050115,,,A*66
$GPRMC,005606.000,A,2447.0824,N,12100.5222,E,000.0,000.0,050115,,,A*65
$GPRMC,005607.000,A,2447.0825,N,12100.5220,E,000.0,000.0,050115,,,A*67
$GPRMC,005608.000,A,2447.0827,N,12100.5224,E,000.0,000.0,050115,,,A*6e
$GPRMC,005609.000,A,2447.0822,N,12100.5225,E,000.0,000.0,050115,,,A*6b
$GPRMC,005610.000,A,2447.0824,N,12100.5221,E,000.0,000.0,050115,,,A*61
$GPRMC,005611.000,A,2447.0824,N,12100.5221,E,000.0,000.0,050115,,,A*60
$GPRMC,005612.000,A,2447.0824,N,12100.5221,E,000.0,000.0,050115,,,A*63
$GPRMC,005613.000,A,2447.0824,N,12100.5221,E,000.0,000.0,050115,,,A*62
$GPRMC,005614.000,A,2447.0824,N,12100.5221,E,000.0,000.0,050115,,,A*65
$GPRMC,005615.000,A,2447.0824,N,12100.5221,E,000.0,000.0,050115,,,A*64
$GPRMC,005616.000,A,2447.0829,N,12100.5224,E,000.0,000.0,050115,,,A*6f
$GPRMC,005617.000,A,2447.0829,N,12100.5224,E,000.0,000.0,050115,,,A*6e
$GPRMC,005618.000,A,2447.0829,N,12100.5224,E,000.0,000.0,050115,,,A*61
$GPRMC,005619.000,A,2447.0829,N,12100.5224,E,000.0,000.0,050115,,,A*60
$GPRMC,005620.000,A,2447.0829,N,12100.5224,E,000.0,000.0,050115,,,A*6a
$GPRMC,005621.000,A,2447.0829,N,12100.5224,E,000.0,000.0,050115,,,A*6b
$GPRMC,005622.000,A,2447.0829,N,12100.5224,E,000.0,000.0,050115,,,A*68
$GPRMC,005623.000,A,2447.0829,N,12100.5224,E,000.0,000.0,050115,,,A*69
$GPRMC,005624.000,A,2447.0829,N,12100.5224,E,000.0,000.0,050115,,,A*6e
$GPRMC,005625.000,A,2447.0829,N,12100.5224,E,000.0,000.0,050115,,,A*6f
$GPRMC,005626.000,A,2447.0829,N,12100.5224,E,000.0,000.0,050115,,,A*6c
$GPRMC,005627.000,A,2447.0829,N,12100.5224,E,000.0,000.0,050115,,,A*6d
$GPRMC,005628.000,A,2447.0829,N,12100.5224,E,000.0,000.0,050115,,,A*62
$GPRMC,005629.000,A,2447.0829,N,12100.5224,E,000.0,000.0,050115,,,A*63
$GPRMC,005630.000,A,2447.0829,N,12100.5224,E,000.0,000.0,050115,,,A*6b
$GPRMC,005631.000,A,2447.0829,N,12100.5224,E,000.0,000.0,050115,,,A*6a
$GPRMC,005632.000,A,2447.0829,N,12100.5224,E,000.0,000.0,050115,,,A*69
$GPRMC,005633.000,A,2447.0829,N,12100.5224,E,000.0,000.0,050115,,,A*68
$GPRMC,005634.000,A,2447.0829,N,12100.5224,E,000.0,000.0,050115,,,A*6f
$GPRMC,005642.000,A,2447.0832,N,12100.5225,E,000.0,000.0,050115,,,A*65
$GPRMC,005643.000,A,2447.0831,N,12100.5226,E,000.0,000.0,050115,,,A*64
$GPRMC,005644.000,A,2447.0832,N,12100.5223,E,000.0,000.0,050115,,,A*65
$GPRMC,005645.000,A,2447.0837,N,12100.5225,E,000.0,000.0,050115,,,A*67
$GPRMC,005646.000,A,2447.0837,N,12100.5218,E,000.0,000.0,050115,,,A*6a
$GPRMC,005647.000,A,2447.0839,N,12100.5222,E,000.0,000.0,050115,,,A*6c
$GPRMC,005648.000,A,2447.0837,N,12100.5221,E,000.0,000.0,050115,,,A*6e
$GPRMC,005649.000,A,2447.0836,N,12100.5219,E,000.0,000.0,050115,,,A*65
$GPRMC,005650.000,A,2447.0836,N,12100.5219,E,000.0,000.0,050115,,,A*6d
$GPRMC,005651.000,A,2447.0836,N,12100.5219,E,000.0,000.0,050115,,,A*6c
$GPRMC,005652.000,A,2447.0836,N,12100.5219,E,000.0,000.0,050115,,,A*6f
$GPRMC,005653.000,A,2447.0836,N,12100.5219,E,000.0,000.0,050115,,,A*6e
$GPRMC,005654.000,A,2447.0839,N,12100.5218,E,000.0,000.0,050115,,,A*67
$GPRMC,005655.000,A,2447.0839,N,12100.5218,E,000.0,000.0,050115,,,A*66
$GPRMC,005656.000,A,2447.0839,N,12100.5218,E,000.0,000.0,050115,,,A*65
$GPRMC,005657.000,A,2447.0839,N,12100.5218,E,000.0,000.0,050115,,,A*64
$GPRMC,005658.000,A,2447.0839,N,12100.5218,E,000.0,000.0,050115,,,A*6b
$GPRMC,005659.000,A,2447.0839,N,12100.5218,E,000.0,000.0,050115,,,A*6a
$GPRMC,005700.000,A,2447.0839,N,12100.5218,E,000.0,000.0,050115,,,A*67
$GPRMC,005701.000,A,2447.0839,N,12100.5218,E,000.0,000.0,050115,,,A*66
$GPRMC,005702.000,A,2447.0839,N,12100.5218,E,000.0,000.0,050115,,,A*65
$GPRMC,005703.000,A,2447.0839,N,12100.5218,E,000.0,000.0,050115,,,A*64
$GPRMC,005704.000,A,2447.0839,N,12100.5218,E,000.0,000.0,050115,,,A*63
$GPRMC,005705.000,A,2447.0839,N,12100.5218,E,000.0,000.0,050115,,,A*62
$GPRMC,005706.000,A,2447.0839,N,12100.5218,E,000.0,000.0,050115,,,A*61
$GPRMC,005707.000,A,2447.0839,N,12100.5218,E,000.0,000.0,050115,,,A*60
$GPRMC,005708.000,A,2447.0839,N,12100.5218,E,000.0,000.0,050115,,,A*6f
$GPRMC,005709.000,A,2447.0839,N,12100.5218,E,000.0,000.0,050115,,,A*6e
$GPRMC,005710.000,A,2447.0839,N,12100.5218,E,000.0,000.0,050115,,,A*66
$GPRMC,005711.000,A,2447.0839,N,12100.5218,E,000.0,000.0,050115,,,A*67
$GPRMC,005712.000,A,2447.0839,N,12100.5218,E,000.0,000.0,050115,,,A*64
$GPRMC,005713.000,A,2447.0839,N,12100.5218,E,000.0,000.0,050115,,,A*65
$GPRMC,005714.000,A,2447.0839,N,12100.5218,E,000.0,000.0,050115,,,A*62
$GPRMC,005715.000,A,2447.0839,N,12100.5218,E,000.0,000.0,050115,,,A*63
$GPRMC,005716.000,A,2447.0839,N,12100.5218,E,000.0,000.0,050115,,,A*60
$GPRMC,005717.000,A,2447.0839,N,12100.5218,E,000.0,000.0,050115,,,A*61
$GPRMC,005718.000,A,2447.0839,N,12100.5218,E,000.0,000.0,050115,,,A*6e
$GPRMC,005719.000,A,2447.0839,N,12100.5218,E,000.0,000.0,050115,,,A*6f
$GPRMC,005720.000,A,2447.0839,N,12100.5218,E,000.0,000.0,050115,,,A*65
$GPRMC,005721.000,A,2447.0839,N,12100.5218,E,000.0,000.0,050115,,,A*64
$GPRMC,005722.000,A,2447.0839,N,12100.5218,E,000.0,000.0,050115,,,A*67
$GPRMC,005730.000,A,2447.0890,N,12100.5203,E,000.0,000.0,050115,,,A*6d
$GPRMC,005731.000,A,2447.0889,N,12100.5198,E,000.0,000.0,050115,,,A*65
$GPRMC,005732.000,A,2447.0890,N,12100.5200,E,000.0,000.0,050115,,,A*6c
$GPRMC,005733.000,A,2447.0891,N,12100.5204,E,000.0,000.0,050115,,,A*68
$GPRMC,005734.000,A,2447.0888,N,12100.5200,E,000.0,000.0,050115,,,A*63
$GPRMC,005735.000,A,2447.0888,N,12100.5201,E,000.0,000.0,050115,,,A*63
$GPRMC,005736.000,A,2447.0888,N,12100.5202,E,000.0,000.0,050115,,,A*63
$GPRMC,005737.000,A,2447.0891,N,12100.5200,E,000.0,000.0,050115,,,A*68
$GPRMC,005738.000,A,2447.0891,N,12100.5200,E,000.0,000.0,050115,,,A*67
$GPRMC,005739.000,A,2447.0891,N,12100.5200,E,000.0,000.0,050115,,,A*66
$GPRMC,005740.000,A,2447.0891,N,12100.5200,E,000.0,000.0,050115,,,A*68
$GPRMC,005741.000,A,2447.0891,N,12100.5200,E,000.0,000.0,050115,,,A*69
$GPRMC,005742.000,A,2447.0891,N,12100.5200,E,000.0,000.0,050115,,,A*6a
$GPRMC,005743.000,A,2447.0891,N,12100.5200,E,000.0,000.0,050115,,,A*6b
$GPRMC,005744.000,A,2447.0891,N,12100.5200,E,000.0,000.0,050115,,,A*6c
$GPRMC,005745.000,A,2447.0891,N,12100.5200,E,000.0,000.0,050115,,,A*6d
$GPRMC,005746.000,A,2447.0891,N,12100.5200,E,000.0,000.0,050115,,,A*6e
$GPRMC,005747.000,A,2447.0891,N,12100.5200,E,000.0,000.0,050115,,,A*6f
$GPRMC,005748.000,A,2447.0891,N,12100.5200,E,000.0,000.0,050115,,,A*60
$GPRMC,005749.000,A,2447.0891,N,12100.5200,E,000.0,000.0,050115,,,A*61
$GPRMC,005750.000,A,2447.0891,N,12100.5200,E,000.0,000.0,050115,,,A*69
$GPRMC,005751.000,A,2447.0891,N,12100.5200,E,000.0,000.0,050115,,,A*68
$GPRMC,005752.000,A,2447.0891,N,12100.5200,E,000.0,000.0,050115,,,A*6b
$GPRMC,005753.000,A,2447.0891,N,12100.5200,E,000.0,000.0,050115,,,A*6a
$GPRMC,005754.000,A,2447.0891,N,12100.5200,E,000.0,000.0,050115,,,A*6d
$GPRMC,005755.000,A,2447.0891,N,12100.5200,E,000.0,000.0,050115,,,A*6c
$GPRMC,005756.000,A,2447.0891,N,12100.5200,E,000.0,000.0,050115,,,A*6f
$GPRMC,005757.000,A,2447.0891,N,12100.5200,E,000.0,000.0,050115,,,A*6e
$GPRMC,005758.000,A,2447.0891,N,12100.5200,E,000.0,000.0,050115,,,A*61
$GPRMC,005759.000,A,2447.0891,N,12100.5200,E,000.0,000.0,050115,,,A*60
$GPRMC,005800.000,A,2447.0891,N,12100.5200,E,000.0,000.0,050115,,,A*63
$GPRMC,005801.000,A,2447.0891,N,12100.5200,E,000.0,000.0,050115,,,A*62
$GPRMC,005802.000,A,2447.0891,N,12100.5200,E,000.0,000.0,050115,,,A*61
$GPRMC,005810.000,A,2447.0835,N,12100.5218,E,000.0,000.0,050115,,,A*65
$GPRMC,005811.000,A,2447.0835,N,12100.5221,E,000.0,000.0,050115,,,A*6e
$GPRMC,005812.000,A,2447.0837,N,12100.5218,E,000.0,000.0,050115,,,A*65
$GPRMC,005813.000,A,2447.0840,N,12100.5217,E,000.0,000.0,050115,,,A*6b
$GPRMC,005814.000,A,2447.0840,N,12100.5218,E,000.0,000.0,050115,,,A*63
$GPRMC,005815.000,A,2447.0839,N,12100.5216,E,000.0,000.0,050115,,,A*62
$GPRMC,005816.000,A,2447.0839,N,12100.5217,E,000.0,000.0,050115,,,A*60
$GPRMC,005817.000,A,2447.0842,N,12100.5215,E,000.0,000.0,050115,,,A*6f
$GPRMC,005818.000,A,2447.0839,N,12100.5218,E,000.0,000.0,050115,,,A*61
$GPRMC,005819.000,A,2447.0839,N,12100.5218,E,000.0,000.0,050115,,,A*60
$GPRMC,005820.000,A,2447.0839,N,12100.5218,E,000.0,000.0,050115,,,A*6a
$GPRMC,005821.000,A,2447.0839,N,12100.5218,E,000.0,000.0,050115,,,A*6b
$GPRMC,005822.000,A,2447.0839,N,12100.5218,E,000.0,000.0,050115,,,A*68
$GPRMC,005823.000,A,2447.0839,N,12100.5218,E,000.0,000.0,050115,,,A*69
$GPRMC,005824.000,A,2447.0839,N,12100.5218,E,000.0,000.0,050115,,,A*6e
$GPRMC,005825.000,A,2447.0839,N,12100.5218,E,000.0,000.0,050115,,,A*6f
$GPRMC,005826.000,A,2447.0839,N,12100.5218,E,000.0,000.0,050115,,,A*6c
$GPRMC,005827.000,A,2447.0839,N,12100.5218,E,000.0,000.0,050115,,,A*6d
$GPRMC,005828.000,A,2447.0839,N,12100.5218,E,000.0,000.0,050115,,,A*62
$GPRMC,005829.000,A,2447.0839,N,12100.5218,E,000.0,000.0,050115,,,A*63
$GPRMC,005830.000,A,2447.0839,N,12100.5218,E,000.0,000.0,050115,,,A*6b
$GPRMC,005831.000,A,2447.0839,N,12100.5218,E,000.0,000.0,050115,,,A*6a
$GPRMC,005832.000,A,2447.0839,N,12100.5218,E,000.0,000.0,050115,,,A*69
$GPRMC,005833.000,A,2447.0839,N,12100.5218,E,000.0,000.0,050115,,,A*68
$GPRMC,005834.000,A,2447.0839,N,12100.5218,E,000.0,000.0,050115,,,A*6f
$GPRMC,005835.000,A,2447.0839,N,12100.5218,E,000.0,000.0,050115,,,A*6e
$GPRMC,005836.000,A,2447.0839,N,12100.5218,E,000.0,000.0,050115,,,A*6d
$GPRMC,005837.000,A,2447.0839,N,12100.5218,E,000.0,000.0,050115,,,A*6c
$GPRMC,005838.000,A,2447.0839,N,12100.5218,E,000.0,000.0,050115,,,A*63
$GPRMC,005839.000,A,2447.0839,N,12100.5218,E,000.0,000.0,050115,,,A*62
$GPRMC,005840.000,A,2447.0839,N,12100.5218,E,000.0,000.0,050115,,,A*6c
$GPRMC,005841.000,A,2447.0839,N,12100.5218,E,000.0,000.0,050115,,,A*6d
$GPRMC,005842.000,A,2447.0839,N,12100.5218,E,000.0,000.0,050115,,,A*6e
$GPRMC,005843.000,A,2447.0839,N,12100.5218,E,000.0,000.0,050115,,,A*6f
$GPRMC,005844.000,A,2447.0839,N,12100.5218,E,000.0,000.0,050115,,,A*68
$GPRMC,005845.000,A,2447.0839,N,12100.5218,E,000.0,000.0,050115,,,A*69
$GPRMC,005846.000,A,2447.0839,N,12100.5218,E,000.0,000.0,050115,,,A*6a
$GPRMC,005847.000,A,2447.0839,N,12100.5218,E,000.0,000.0,050115,,,A*6b
$GPRMC,005856.000,A,2447.0884,N,12100.5259,E,000.0,000.0,050115,,,A*68
$GPRMC,005857.000,A,2447.0881,N,12100.5260,E,000.0,000.0,050115,,,A*66
$GPRMC,005858.000,A,2447.0885,N,12100.5259,E,000.0,000.0,050115,,,A*67
$GPRMC,005859.000,A,2447.0881,N,12100.5258,E,000.0,000.0,050115,,,A*63
$GPRMC,005900.000,A,2447.0884,N,12100.5255,E,000.0,000.0,050115,,,A*66
$GPRMC,005901.000,A,2447.0882,N,12100.5252,E,000.0,000.0,050115,,,A*66
$GPRMC,005902.000,A,2447.0885,N,12100.5257,E,000.0,000.0,050115,,,A*67
$GPRMC,005903.000,A,2447.0885,N,12100.5257,E,000.0,000.0,050115,,,A*66
$GPRMC,005904.000,A,2447.0885,N,12100.5257,E,000.0,000.0,050115,,,A*61
$GPRMC,005905.000,A,2447.0885,N,12100.5257,E,000.0,000.0,050115,,,A*60
$GPRMC,005906.000,A,2447.0885,N,12100.5257,E,000.0,000.0,050115,,,A*63
$GPRMC,005907.000,A,2447.0885,N,12100.5257,E,000.0,000.0,050115,,,A*62
$GPRMC,005908.000,A,2447.0885,N,12100.5257,E,000.0,000.0,050115,,,A*6d
$GPRMC,005909.000,A,2447.0885,N,12100.5257,E,000.0,000.0,050115,,,A*6c
$GPRMC,005910.000,A,2447.0885,N,12100.5257,E,000.0,000.0,050115,,,A*64
$GPRMC,005911.000,A,2447.0885,N,12100.5257,E,000.0,000.0,050115,,,A*65
$GPRMC,005912.000,A,2447.0885,N,12100.5257,E,000.0,000.0,050115,,,A*66
$GPRMC,005913.000,A,2447.0885,N,12100.5257,E,000.0,000.0,050115,,,A*67
$GPRMC,005914.000,A,2447.0885,N,12100.5257,E,000.0,000.0,050115,,,A*60
$GPRMC,005915.000,A,2447.0884,N,12100.5254,E,000.0,000.0,050115,,,A*63
$GPRMC,005916.000,A,2447.0884,N,12100.5254,E,000.0,000.0,050115,,,A*60
$GPRMC,005917.000,A,2447.0884,N,12100.5254,E,000.0,000.0,050115,,,A*61
$GPRMC,005918.000,A,2447.0884,N,12100.5254,E,000.0,000.0,050115,,,A*6e
$GPRMC,005919.000,A,2447.0884,N,12100.5254,E,000.0,000.0,050115,,,A*6f
$GPRMC,005920.000,A,2447.0884,N,12100.5254,E,000.0,000.0,050115,,,A*65
$GPRMC,005921.000,A,2447.0884,N,12100.5254,E,000.0,000.0,050115,,,A*64
$GPRMC,005922.000,A,2447.0884,N,12100.5254,E,000.0,000.0,050115,,,A*67
$GPRMC,005923.000,A,2447.0884,N,12100.5254,E,000.0,000.0,050115,,,A*66
$GPRMC,005924.000,A,2447.0884,N,12100.5254,E,000.0,000.0,050115,,,A*61
$GPRMC,005925.000,A,2447.0884,N,12100.5254,E,000.0,000.0,050115,,,A*60
$GPRMC,005926.000,A,2447.0884,N,12100.5254,E,000.0,000.0,050115,,,A*63
$GPRMC,005935.000,A,2447.0895,N,12100.5254,E,000.0,000.0,050115,,,A*61
$GPRMC,005936.000,A,2447.0896,N,12100.5250,E,000.0,000.0,050115,,,A*65
$GPRMC,005937.000,A,2447.0891,N,12100.5250,E,000.0,000.0,050115,,,A*63
$GPRMC,005938.000,A,2447.0893,N,12100.5253,E,000.0,000.0,050115,,,A*6d
$GPRMC,005939.000,A,2447.0894,N,12100.5248,E,000.0,000.0,050115,,,A*61
$GPRMC,005940.000,A,2447.0894,N,12100.5248,E,000.0,000.0,050115,,,A*6f
$GPRMC,005941.000,A,2447.0894,N,12100.5248,E,000.0,000.0,050115,,,A*6e
$GPRMC,005942.000,A,2447.0891,N,12100.5250,E,000.0,000.0,050115,,,A*61
$GPRMC,005943.000,A,2447.0891,N,12100.5250,E,000.0,000.0,050115,,,A*60
$GPRMC,005944.000,A,2447.0891,N,12100.5250,E,000.0,000.0,050115,,,A*67
$GPRMC,005945.000,A,2447.0891,N,12100.5250,E,000.0,000.0,050115,,,A*66
$GPRMC,005946.000,A,2447.0891,N,12100.5250,E,000.0,000.0,050115,,,A*65
$GPRMC,005947.000,A,2447.0891,N,12100.5250,E,000.0,000.0,050115,,,A*64
$GPRMC,005948.000,A,2447.0891,N,12100.5250,E,000.0,000.0,050115,,,A*6b
$GPRMC,005949.000,A,2447.0891,N,12100.5250,E,000.0,000.0,050115,,,A*6a
$GPRMC,005950.000,A,2447.0891,N,12100.5250,E,000.0,000.0,050115,,,A*62
$GPRMC,005951.000,A,2447.0891,N,12100.5250,E,000.0,000.0,050115,,,A*63
$GPRMC,005952.000,A,2447.0891,N,12100.5250,E,000.0,000.0,050115,,,A*60
$GPRMC,005953.000,A,2447.0891,N,12100.5250,E,000.0,000.0,050115,,,A*61
$GPRMC,005954.000,A,2447.0891,N,12100.5250,E,000.0,000.0,050115,,,A*66
$GPRMC,005955.000,A,2447.0891,N,12100.5250,E,000.0,000.0,050115,,,A*67
$GPRMC,005956.000,A,2447.0891,N,12100.5250,E,000.0,000.0,050115,,,A*64
$GPRMC,005957.000,A,2447.0891,N,12100.5250,E,000.0,000.0,050115,,,A*65
$GPRMC,005958.000,A,2447.0891,N,12100.5250,E,000.0,000.0,050115,,,A*6a
$GPRMC,005959.000,A,2447.0891,N,12100.5250,E,000.0,000.0,050115,,,A*6b
$GPRMC,010000.000,A,2447.0891,N,12100.5250,E,000.0,000.0,050115,,,A*6a
$GPRMC,010001.000,A,2447.0891,N,12100.5250,E,000.0,000.0,050115,,,A*6b
$GPRMC,010002.000,A,2447.0891,N,12100.5250,E,000.0,000.0,050115,,,A*68
$GPRMC,010003.000,A,2447.0891,N,12100.5250,E,000.0,000.0,050115,,,A*69
$GPRMC,010004.000,A,2447.0891,N,12100.5250,E,000.0,000.0,050115,,,A*6e
$GPRMC,010012.000,A,2447.0878,N,12100.5220,E,000.0,000.0,050115,,,A*69
$GPRMC,010013.000,A,2447.0881,N,12100.5218,E,000.0,000.0,050115,,,A*65
$GPRMC,010014.000,A,2447.0879,N,12100.5216,E,000.0,000.0,050115,,,A*6b
$GPRMC,010015.000,A,2447.0881,N,12100.5219,E,000.0,000.0,050115,,,A*62
$GPRMC,010016.000,A,2447.0879,N,12100.5217,E,000.0,000.0,050115,,,A*68
$GPRMC,010017.000,A,2447.0879,N,12100.5217,E,000.0,000.0,050115,,,A*69
$GPRMC,010018.000,A,2447.0882,N,12100.5220,E,000.0,000.0,050115,,,A*66
$GPRMC,010019.000,A,2447.0883,N,12100.5215,E,000.0,000.0,050115,,,A*60
$GPRMC,010020.000,A,2447.0883,N,12100.5215,E,000.0,000.0,050115,,,A*6a
$GPRMC,010021.000,A,2447.0878,N,12100.5215,E,000.0,000.0,050115,,,A*6f
$GPRMC,010022.000,A,2447.0878,N,12100.5215,E,000.0,000.0,050115,,,A*6c
$GPRMC,010023.000,A,2447.0878,N,12100.5215,E,000.0,000.0,050115,,,A*6d
$GPRMC,010024.000,A,2447.0878,N,12100.5215,E,000.0,000.0,050115,,,A*6a
$GPRMC,010025.000,A,2447.0878,N,12100.5215,E,000.0,000.0,050115,,,A*6b
$GPRMC,010026.000,A,2447.0878,N,12100.5215,E,000.0,000.0,050115,,,A*68
$GPRMC,010027.000,A,2447.0878,N,12100.5215,E,000.0,000.0,050115,,,A*69
$GPRMC,010028.000,A,2447.0878,N,12100.5215,E,000.0,000.0,050115,,,A*66
$GPRMC,010029.000,A,2447.0878,N,12100.5215,E,000.0,000.0,050115,,,A*67
$GPRMC,010030.000,A,2447.0878,N,12100.5215,E,000.0,000.0,050115,,,A*6f
$GPRMC,010031.000,A,2447.0878,N,12100.5215,E,000.0,000.0,050115,,,A*6e
$GPRMC,010032.000,A,2447.0878,N,12100.5215,E,000.0,000.0,050115,,,A*6d
$GPRMC,010033.000,A,2447.0878,N,12100.5215,E,000.0,000.0,050115,,,A*6c
$GPRMC,010034.000,A,2447.0878,N,12100.5215,E,000.0,000.0,050115,,,A*6b
$GPRMC,010035.000,A,2447.0878,N,12100.5215,E,000.0,000.0,050115,,,A*6a
$GPRMC,010036.000,A,2447.0878,N,12100.5215,E,000.0,000.0,050115,,,A*69
$GPRMC,010037.000,A,2447.0878,N,12100.5215,E,000.0,000.0,050115,,,A*68
$GPRMC,010038.000,A,2447.0878,N,12100.5215,E,000.0,000.0,050115,,,A*67
$GPRMC,010046.000,A,2447.0888,N,12100.5207,E,000.0,000.0,050115,,,A*62
$GPRMC,010047.000,A,2447.0887,N,12100.5207,E,000.0,000.0,050115,,,A*6c
$GPRMC,010048.000,A,2447.0885,N,12100.5206,E,000.0,000.0,050115,,,A*60
$GPRMC,010049.000,A,2447.0882,N,12100.5210,E,000.0,000.0,050115,,,A*61
$GPRMC,010050.000,A,2447.0882,N,12100.5211,E,000.0,000.0,050115,,,A*68
$GPRMC,010051.000,A,2447.0887,N,12100.5212,E,000.0,000.0,050115,,,A*6f
$GPRMC,010052.000,A,2447.0885,N,12100.5210,E,000.0,000.0,050115,,,A*6c
$GPRMC,010053.000,A,2447.0884,N,12100.5208,E,000.0,000.0,050115,,,A*65
$GPRMC,010054.000,A,2447.0885,N,12100.5211,E,000.0,000.0,050115,,,A*6b
$GPRMC,010055.000,A,2447.0885,N,12100.5211,E,000.0,000.0,050115,,,A*6a
$GPRMC,010056.000,A,2447.0885,N,12100.5211,E,000.0,000.0,050115,,,A*69
$GPRMC,010057.000,A,2447.0885,N,12100.5211,E,000.0,000.0,050115,,,A*68
$GPRMC,010058.000,A,2447.0885,N,12100.5211,E,000.0,000.0,050115,,,A*67
$GPRMC,010059.000,A,2447.0885,N,12100.5211,E,000.0,000.0,050115,,,A*66
$GPRMC,010100.000,A,2447.0885,N,12100.5211,E,000.0,000.0,050115,,,A*6b
$GPRMC,010101.000,A,2447.0885,N,12100.5211,E,000.0,000.0,050115,,,A*6a
$GPRMC,010102.000,A,2447.0885,N,12100.5211,E,000.0,000.0,050115,,,A*69
$GPRMC,010103.000,A,2447.0885,N,12100.5211,E,000.0,000.0,050115,,,A*68
$GPRMC,010104.000,A,2447.0885,N,12100.5211,E,000.0,000.0,050115,,,A*6f
$GPRMC,010105.000,A,2447.0885,N,12100.5211,E,000.0,000.0,050115,,,A*6e
$GPRMC,010106.000,A,2447.0885,N,12100.5211,E,000.0,000.0,050115,,,A*6d
$GPRMC,010107.000,A,2447.0885,N,12100.5211,E,000.0,000.0,050115,,,A*6c
$GPRMC,010108.000,A,2447.0885,N,12100.5211,E,000.0,000.0,050115,,,A*63
$GPRMC,010109.000,A,2447.0886,N,12100.5213,E,000.0,000.0,050115,,,A*63
$GPRMC,010110.000,A,2447.0886,N,12100.5213,E,000.0,000.0,050115,,,A*6b
$GPRMC,010111.000,A,2447.0886,N,12100.5213,E,000.0,000.0,050115,,,A*6a
$GPRMC,010112.000,A,2447.0886,N,12100.5213,E,000.0,000.0,050115,,,A*69
$GPRMC,010113.000,A,2447.0886,N,12100.5213,E,000.0,000.0,050115,,,A*68
$GPRMC,010114.000,A,2447.0886,N,12100.5213,E,000.0,000.0,050115,,,A*6f
$GPRMC,010115.000,A,2447.0886,N,12100.5213,E,000.0,000.0,050115,,,A*6e
$GPRMC,010116.000,A,2447.0886,N,12100.5213,E,000.0,000.0,050115,,,A*6d
$GPRMC,010117.000,A,2447.0886,N,12100.5213,E,000.0,000.0,050115,,,A*6c
$GPRMC,010118.000,A,2447.0886,N,12100.5213,E,000.0,000.0,050115,,,A*63
$GPRMC,010119.000,A,2447.0886,N,12100.5213,E,000.0,000.0,050115,,,A*62
$GPRMC,010120.000,A,2447.0886,N,12100.5213,E,000.0,000.0,050115,,,A*68
$GPRMC,010121.000,A,2447.0886,N,12100.5213,E,000.0,000.0,050115,,,A*69
$GPRMC,010129.000,A,2447.0884,N,12100.5197,E,000.0,000.0,050115,,,A*6c
$GPRMC,010130.000,A,2447.0888,N,12100.5198,E,000.0,000.0,050115,,,A*67
$GPRMC,010131.000,A,2447.0886,N,12100.5197,E,000.0,000.0,050115,,,A*67
$GPRMC,010132.000,A,2447.0886,N,12100.5198,E,000.0,000.0,050115,,,A*6b
$GPRMC,010133.000,A,2447.0884,N,12100.5196,E,000.0,000.0,050115,,,A*66
$GPRMC,010134.000,A,2447.0886,N,12100.5199,E,000.0,000.0,050115,,,A*6c
$GPRMC,010135.000,A,2447.0888,N,12100.5202,E,000.0,000.0,050115,,,A*62
$GPRMC,010136.000,A,2447.0888,N,12100.5202,E,000.0,000.0,050115,,,A*61
$GPRMC,010137.000,A,2447.0888,N,12100.5202,E,000.0,000.0,050115,,,A*60
$GPRMC,010138.000,A,2447.0888,N,12100.5202,E,000.0,000.0,050115,,,A*6f
$GPRMC,010139.000,A,2447.0888,N,12100.5202,E,000.0,000.0,050115,,,A*6e
$GPRMC,010140.000,A,2447.0888,N,12100.5202,E,000.0,000.0,050115,,,A*60
$GPRMC,010141.000,A,2447.0888,N,12100.5202,E,000.0,000.0,050115,,,A*61
$GPRMC,010142.000,A,2447.0888,N,12100.5202,E,000.0,000.0,050115,,,A*62
$GPRMC,010143.000,A,2447.0888,N,12100.5202,E,000.0,000.0,050115,,,A*63
$GPRMC,010144.000,A,2447.0888,N,12100.5202,E,000.0,000.0,050115,,,A*64
$GPRMC,010145.000,A,2447.0888,N,12100.5202,E,000.0,000.0,050115,,,A*65
$GPRMC,010146.000,A,2447.0888,N,12100.5202,E,000.0,000.0,050115,,,A*66
$GPRMC,010147.000,A,2447.0888,N,12100.5202,E,000.0,000.0,050115,,,A*67
$GPRMC,010148.000,A,2447.0888,N,12100.5202,E,000.0,000.0,050115,,,A*68
$GPRMC,010149.000,A,2447.0888,N,12100.5202,E,000.0,000.0,050115,,,A*69
$GPRMC,010150.000,A,2447.0888,N,12100.5202,E,000.0,000.0,050115,,,A*61
$GPRMC,010151.000,A,2447.0888,N,12100.5202,E,000.0,000.0,050115,,,A*60
$GPRMC,010152.000,A,2447.0888,N,12100.5202,E,000.0,000.0,050115,,,A*63
$GPRMC,010153.000,A,2447.0888,N,12100.5202,E,000.0,000.0,050115,,,A*62
$GPRMC,010154.000,A,2447.0883,N,12100.5202,E,000.0,000.0,050115,,,A*6e
$GPRMC,010155.000,A,2447.0883,N,12100.5202,E,000.0,000.0,050115,,,A*6f
$GPRMC,010156.000,A,2447.0883,N,12100.5202,E,000.0,000.0,050115,,,A*6c
$GPRMC,010157.000,A,2447.0883,N,12100.5202,E,000.0,000.0,050115,,,A*6d
$GPRMC,010158.000,A,2447.0883,N,12100.5202,E,000.0,000.0,050115,,,A*62
$GPRMC,010159.000,A,2447.0883,N,12100.5202,E,000.0,000.0,050115,,,A*63
$GPRMC,010207.000,A,2447.0872,N,12100.5188,E,000.0,000.0,050115,,,A*64
$GPRMC,010208.000,A,2447.0870,N,12100.5186,E,000.0,000.0,050115,,,A*67
$GPRMC,010209.000,A,2447.0869,N,12100.5193,E,000.0,000.0,050115,,,A*6a
$GPRMC,010210.000,A,2447.0872,N,12100.5192,E,000.0,000.0,050115,,,A*69
$GPRMC,010211.000,A,2447.0870,N,12100.5190,E,000.0,000.0,050115,,,A*68
$GPRMC,010212.000,A,2447.0872,N,12100.5193,E,000.0,000.0,050115,,,A*6a
$GPRMC,010213.000,A,2447.0869,N,12100.5196,E,000.0,000.0,050115,,,A*64
$GPRMC,010214.000,A,2447.0873,N,12100.5194,E,000.0,000.0,050115,,,A*6a
$GPRMC,010215.000,A,2447.0873,N,12100.5194,E,000.0,000.0,050115,,,A*6b
$GPRMC,010216.000,A,2447.0873,N,12100.5194,E,000.0,000.0,050115,,,A*68
$GPRMC,010217.000,A,2447.0873,N,12100.5194,E,000.0,000.0,050115,,,A*69
$GPRMC,010218.000,A,2447.0873,N,12100.5194,E,000.0,000.0,050115,,,A*66
$GPRMC,010219.000,A,2447.0873,N,12100.5194,E,000.0,000.0,050115,,,A*67
$GPRMC,010220.000,A,2447.0873,N,12100.5194,E,000.0,000.0,050115,,,A*6d
$GPRMC,010221.000,A,2447.0873,N,12100.5194,E,000.0,000.0,050115,,,A*6c
$GPRMC,010222.000,A,2447.0873,N,12100.5194,E,000.0,000.0,050115,,,A*6f
$GPRMC,010223.000,A,2447.0873,N,12100.5194,E,000.0,000.0,050115,,,A*6e
$GPRMC,010224.000,A,2447.0873,N,12100.5194,E,000.0,000.0,050115,,,A*69
$GPRMC,010225.000,A,2447.0873,N,12100.5194,E,000.0,000.0,050115,,,A*68
$GPRMC,010226.000,A,2447.0873,N,12100.5194,E,000.0,000.0,050115,,,A*6b
$GPRMC,010227.000,A,2447.0873,N,12100.5194,E,000.0,000.0,050115,,,A*6a
$GPRMC,010228.000,A,2447.0873,N,12100.5194,E,000.0,000.0,050115,,,A*65
$GPRMC,010229.000,A,2447.0873,N,12100.5194,E,000.0,000.0,050115,,,A*64
$GPRMC,010230.000,A,2447.0873,N,12100.5194,E,000.0,000.0,050115,,,A*6c
$GPRMC,010231.000,A,2447.0873,N,12100.5194,E,000.0,000.0,050115,,,A*6d
$GPRMC,010232.000,A,2447.0873,N,12100.5194,E,000.0,000.0,050115,,,A*6e
$GPRMC,010233.000,A,2447.0873,N,12100.5194,E,000.0,000.0,050115,,,A*6f
$GPRMC,010234.000,A,2447.0873,N,12100.5194,E,000.0,000.0,050115,,,A*68
$GPRMC,010235.000,A,2447.0873,N,12100.5194,E,000.0,000.0,050115,,,A*69
$GPRMC,010236.000,A,2447.0873,N,12100.5194,E,000.0,000.0,050115,,,A*6a
$GPRMC,010237.000,A,2447.0873,N,12100.5194,E,000.0,000.0,050115,,,A*6b
$GPRMC,010238.000,A,2447.0873,N,12100.5194,E,000.0,000.0,050115,,,A*64
$GPRMC,010239.000,A,2447.0873,N,12100.5194,E,000.0,000.0,050115,,,A*65
$GPRMC,010248.000,A,2447.0893,N,12100.5209,E,000.0,000.0,050115,,,A*6a
$GPRMC,010249.000,A,2447.0891,N,12100.5208,E,000.0,000.0,050115,,,A*68
$GPRMC,010250.000,A,2447.0895,N,12100.5207,E,000.0,000.0,050115,,,A*6b
$GPRMC,010251.000,A,2447.0890,N,12100.5208,E,000.0,000.0,050115,,,A*60
$GPRMC,010252.000,A,2447.0890,N,12100.5209,E,000.0,000.0,050115,,,A*62
$GPRMC,010253.000,A,2447.0896,N,12100.5210,E,000.0,000.0,050115,,,A*6d
$GPRMC,010254.000,A,2447.0892,N,12100.5206,E,000.0,000.0,050115,,,A*69
$GPRMC,010255.000,A,2447.0894,N,12100.5209,E,000.0,000.0,050115,,,A*61
$GPRMC,010256.000,A,2447.0894,N,12100.5209,E,000.0,000.0,050115,,,A*62
$GPRMC,010257.000,A,2447.0892,N,12100.5207,E,000.0,000.0,050115,,,A*6b
$GPRMC,010258.000,A,2447.0892,N,12100.5207,E,000.0,000.0,050115,,,A*64
$GPRMC,010259.000,A,2447.0892,N,12100.5207,E,000.0,000.0,050115,,,A*65
$GPRMC,010300.000,A,2447.0892,N,12100.5207,E,000.0,000.0,050115,,,A*68
$GPRMC,010301.000,A,2447.0892,N,12100.5207,E,000.0,000.0,050115,,,A*69
$GPRMC,010302.000,A,2447.0892,N,12100.5207,E,000.0,000.0,050115,,,A*6a
$GPRMC,010303.000,A,2447.0892,N,12100.5207,E,000.0,000.0,050115,,,A*6b
$GPRMC,010304.000,A,2447.0892,N,12100.5207,E,000.0,000.0,050115,,,A*6c
$GPRMC,010305.000,A,2447.0892,N,12100.5207,E,000.0,000.0,050115,,,A*6d
$GPRMC,010306.000,A,2447.0892,N,12100.5207,E,000.0,000.0,050115,,,A*6e
$GPRMC,010307.000,A,2447.0892,N,12100.5207,E,000.0,000.0,050115,,,A*6f
$GPRMC,010308.000,A,2447.0892,N,12100.5207,E,000.0,000.0,050115,,,A*60
$GPRMC,010309.000,A,2447.0892,N,12100.5207,E,000.0,000.0,050115,,,A*61
$GPRMC,010310.000,A,2447.0892,N,12100.5207,E,000.0,000.0,050115,,,A*69
$GPRMC,010311.000,A,2447.0892,N,12100.5207,E,000.0,000.0,050115,,,A*68
$GPRMC,010312.000,A,2447.0892,N,12100.5207,E,000.0,000.0,050115,,,A*6b
$GPRMC,010313.000,A,2447.0892,N,12100.5207,E,000.0,000.0,050115,,,A*6a
$GPRMC,010314.000,A,2447.0892,N,12100.5207,E,000.0,000.0,050115,,,A*6d
$GPRMC,010315.000,A,2447.0892,N,12100.5207,E,000.0,000.0,050115,,,A*6c
$GPRMC,010316.000,A,2447.0892,N,12100.5207,E,000.0,000.0,050115,,,A*6f
$GPRMC,010317.000,A,2447.0892,N,12100.5207,E,000.0,000.0,050115,,,A*6e
$GPRMC,010318.000,A,2447.0892,N,12100.5207,E,000.0,000.0,050115,,,A*61
$GPRMC,010327.000,A,2447.0845,N,12100.5222,E,000.0,000.0,050115,,,A*60
$GPRMC,010328.000,A,2447.0846,N,12100.5227,E,000.0,000.0,050115,,,A*69
$GPRMC,010329.000,A,2447.0845,N,12100.5222,E,000.0,000.0,050115,,,A*6e
$GPRMC,010330.000,A,2447.0849,N,12100.5222,E,000.0,000.0,050115,,,A*6a
$GPRMC,010331.000,A,2447.0847,N,12100.5222,E,000.0,000.0,050115,,,A*65
$GPRMC,010332.000,A,2447.0847,N,12100.5224,E,000.0,000.0,050115,,,A*60
$GPRMC,010333.000,A,2447.0852,N,12100.5224,E,000.0,000.0,050115,,,A*65
$GPRMC,010334.000,A,2447.0851,N,12100.5222,E,000.0,000.0,050115,,,A*67
$GPRMC,010335.000,A,2447.0851,N,12100.5222,E,000.0,000.0,050115,,,A*66
$GPRMC,010336.000,A,2447.0851,N,12100.5222,E,000.0,000.0,050115,,,A*65
$GPRMC,010337.000,A,2447.0851,N,12100.5222,E,000.0,000.0,050115,,,A*64
$GPRMC,010338.000,A,2447.0851,N,12100.5222,E,000.0,000.0,050115,,,A*6b
$GPRMC,010339.000,A,2447.0851,N,12100.5222,E,000.0,000.0,050115,,,A*6a
$GPRMC,010340.000,A,2447.0851,N,12100.5222,E,000.0,000.0,050115,,,A*64
$GPRMC,010341.000,A,2447.0851,N,12100.5222,E,000.0,000.0,050115,,,A*65
$GPRMC,010342.000,A,2447.0851,N,12100.5222,E,000.0,000.0,050115,,,A*66
$GPRMC,010343.000,A,2447.0851,N,12100.5222,E,000.0,000.0,050115,,,A*67
$GPRMC,010344.000,A,2447.0851,N,12100.5222,E,000.0,000.0,050115,,,A*60
$GPRMC,010345.000,A,2447.0851,N,12100.5222,E,000.0,000.0,050115,,,A*61
$GPRMC,010346.000,A,2447.0851,N,12100.5222,E,000.0,000.0,050115,,,A*62
$GPRMC,010347.000,A,2447.0851,N,12100.5222,E,000.0,000.0,050115,,,A*63
$GPRMC,010348.000,A,2447.0851,N,12100.5222,E,000.0,000.0,050115,,,A*6c
$GPRMC,010349.000,A,2447.0851,N,12100.5222,E,000.0,000.0,050115,,,A*6d
$GPRMC,010350.000,A,2447.0851,N,12100.5222,E,000.0,000.0,050115,,,A*65
$GPRMC,010351.000,A,2447.0851,N,12100.5222,E,000.0,000.0,050115,,,A*64
$GPRMC,010352.000,A,2447.0851,N,12100.5222,E,000.0,000.0,050115,,,A*67
$GPRMC,010353.000,A,2447.0851,N,12100.5222,E,000.0,000.0,050115,,,A*66
$GPRMC,010354.000,A,2447.0851,N,12100.5222,E,000.0,000.0,050115,,,A*61
$GPRMC,010355.000,A,2447.0851,N,12100.5222,E,000.0,000.0,050115,,,A*60
$GPRMC,010356.000,A,2447.0851,N,12100.5222,E,000.0,000.0,050115,,,A*63
$GPRMC,010357.000,A,2447.0851,N,12100.5222,E,000.0,000.0,050115,,,A*62
$GPRMC,010405.000,A,2447.0921,N,12100.5203,E,000.0,000.0,050115,,,A*67
$GPRMC,010406.000,A,2447.0920,N,12100.5201,E,000.0,000.0,050115,,,A*67
$GPRMC,010407.000,A,2447.0920,N,12100.5201,E,000.0,000.0,050115,,,A*66
$GPRMC,010408.000,A,2447.0920,N,12100.5201,E,000.0,000.0,050115,,,A*69
$GPRMC,010409.000,A,2447.0920,N,12100.5201,E,000.0,000.0,050115,,,A*68
$GPRMC,010410.000,A,2447.0918,N,12100.5206,E,000.0,000.0,050115,,,A*6c
$GPRMC,010411.000,A,2447.0913,N,12100.5206,E,000.0,000.0,050115,,,A*66
$GPRMC,010412.000,A,2447.0915,N,12100.5209,E,000.0,000.0,050115,,,A*6c
$GPRMC,010413.000,A,2447.0915,N,12100.5209,E,000.0,000.0,050115,,,A*6d
$GPRMC,010414.000,A,2447.0915,N,12100.5209,E,000.0,000.0,050115,,,A*6a
$GPRMC,010415.000,A,2447.0915,N,12100.5209,E,000.0,000.0,050115,,,A*6b
$GPRMC,010416.000,A,2447.0915,N,12100.5209,E,000.0,000.0,050115,,,A*68
$GPRMC,010417.000,A,2447.0915,N,12100.5209,E,000.0,000.0,050115,,,A*69
$GPRMC,010418.000,A,2447.0915,N,12100.5209,E,000.0,000.0,050115,,,A*66
$GPRMC,010419.000,A,2447.0913,N,12100.5206,E,000.0,000.0,050115,,,A*6e
$GPRMC,010420.000,A,2447.0913,N,12100.5206,E,000.0,000.0,050115,,,A*64
$GPRMC,010421.000,A,2447.0913,N,12100.5206,E,000.0,000.0,050115,,,A*65
$GPRMC,010422.000,A,2447.0913,N,12100.5206,E,000.0,000.0,050115,,,A*66
$GPRMC,010423.000,A,2447.0913,N,12100.5206,E,000.0,000.0,050115,,,A*67
$GPRMC,010424.000,A,2447.0913,N,12100.5206,E,000.0,000.0,050115,,,A*60
$GPRMC,010425.000,A,2447.0913,N,12100.5206,E,000.0,000.0,050115,,,A*61
$GPRMC,010426.000,A,2447.0913,N,12100.5206,E,000.0,000.0,050115,,,A*62
$GPRMC,010427.000,A,2447.0913,N,12100.5206,E,000.0,000.0,050115,,,A*63
$GPRMC,010428.000,A,2447.0913,N,12100.5206,E,000.0,000.0,050115,,,A*6c
$GPRMC,010429.000,A,2447.0913,N,12100.5206,E,000.0,000.0,050115,,,A*6d
$GPRMC,010430.000,A,2447.0913,N,12100.5206,E,000.0,000.0,050115,,,A*65
$GPRMC,010431.000,A,2447.0913,N,12100.5206,E,000.0,000.0,050115,,,A*64
$GPRMC,010432.000,A,2447.0913,N,12100.5206,E,000.0,000.0,050115,,,A*67
$GPRMC,010433.000,A,2447.0913,N,12100.5206,E,000.0,000.0,050115,,,A*66
$GPRMC,010434.000,A,2447.0913,N,12100.5206,E,000.0,000.0,050115,,,A*61
$GPRMC,010435.000,A,2447.0913,N,12100.5206,E,000.0,000.0,050115,,,A*60
$GPRMC,010436.000,A,2447.0913,N,12100.5206,E,000.0,000.0,050115,,,A*63
$GPRMC,010437.000,A,2447.0913,N,12100.5206,E,000.0,000.0,050115,,,A*62
$GPRMC,010438.000,A,2447.0913,N,12100.5206,E,000.0,000.0,050115,,,A*6d
$GPRMC,010439.000,A,2447.0913,N,12100.5206,E,000.0,000.0,050115,,,A*6c
$GPRMC,010440.000,A,2447.0913,N,12100.5206,E,000.0,000.0,050115,,,A*62
$GPRMC,010441.000,A,2447.0913,N,12100.5206,E,000.0,000.0,050115,,,A*63
$GPRMC,010450.000,A,2447.0850,N,12100.5167,E,000.0,000.0,050115,,,A*61
$GPRMC,010451.000,A,2447.0852,N,12100.5171,E,000.0,000.0,050115,,,A*65
$GPRMC,010452.000,A,2447.0854,N,12100.5174,E,000.0,000.0,050115,,,A*65
$GPRMC,010453.000,A,2447.0856,N,12100.5177,E,000.0,000.0,050115,,,A*65
$GPRMC,010454.000,A,2447.0853,N,12100.5180,E,000.0,000.0,050115,,,A*6f
$GPRMC,010455.000,A,2447.0854,N,12100.5176,E,000.0,000.0,050115,,,A*60
$GPRMC,010456.000,A,2447.0853,N,12100.5180,E,000.0,000.0,050115,,,A*6d
$GPRMC,010457.000,A,2447.0857,N,12100.5179,E,000.0,000.0,050115,,,A*6e
$GPRMC,010458.000,A,2447.0857,N,12100.5179,E,000.0,000.0,050115,,,A*61
$GPRMC,010459.000,A,2447.0857,N,12100.5179,E,000.0,000.0,050115,,,A*60
$GPRMC,010500.000,A,2447.0857,N,12100.5179,E,000.0,000.0,050115,,,A*6d
$GPRMC,010501.000,A,2447.0857,N,12100.5179,E,000.0,000.0,050115,,,A*6c
$GPRMC,010502.000,A,2447.0857,N,12100.5179,E,000.0,000.0,050115,,,A*6f
$GPRMC,010503.000,A,2447.0857,N,12100.5179,E,000.0,000.0,050115,,,A*6e
$GPRMC,010504.000,A,2447.0857,N,12100.5179,E,000.0,000.0,050115,,,A*69
$GPRMC,010505.000,A,2447.0857,N,12100.5179,E,000.0,000.0,050115,,,A*68
$GPRMC,010506.000,A,2447.0857,N,12100.5179,E,000.0,000.0,050115,,,A*6b
$GPRMC,010507.000,A,2447.0857,N,12100.5179,E,000.0,000.0,050115,,,A*6a
$GPRMC,010508.000,A,2447.0857,N,12100.5179,E,000.0,000.0,050115,,,A*65
$GPRMC,010509.000,A,2447.0857,N,12100.5179,E,000.0,000.0,050115,,,A*64
$GPRMC,010510.000,A,2447.0857,N,12100.5179,E,000.0,000.0,050115,,,A*6c
$GPRMC,010511.000,A,2447.0857,N,12100.5179,E,000.0,000.0,050115,,,A*6d
$GPRMC,010512.000,A,2447.0857,N,12100.5179,E,000.0,000.0,050115,,,A*6e
$GPRMC,010513.000,A,2447.0857,N,12100.5179,E,000.0,000.0,050115,,,A*6f
$GPRMC,010514.000,A,2447.0857,N,12100.5179,E,000.0,000.0,050115,,,A*68
$GPRMC,010515.000,A,2447.0857,N,12100.5179,E,000.0,000.0,050115,,,A*69
$GPRMC,010516.000,A,2447.0857,N,12100.5179,E,000.0,000.0,050115,,,A*6a
$GPRMC,010517.000,A,2447.0857,N,12100.5179,E,000.0,000.0,050115,,,A*6b
$GPRMC,010518.000,A,2447.0857,N,12100.5179,E,000.0,000.0,050115,,,A*64
$GPRMC,010527.000,A,2447.0909,N,12100.5132,E,000.0,000.0,050115,,,A*6d
$GPRMC,010528.000,A,2447.0885,N,12100.5163,E,000.0,000.0,050115,,,A*63
$GPRMC,010529.000,A,2447.0884,N,12100.5162,E,000.0,000.0,050115,,,A*62
$GPRMC,010530.000,A,2447.0887,N,12100.5161,E,000.0,000.0,050115,,,A*6a
$GPRMC,010531.000,A,2447.0888,N,12100.5163,E,000.0,000.0,050115,,,A*66
$GPRMC,010532.000,A,2447.0885,N,12100.5167,E,000.0,000.0,050115,,,A*6c
$GPRMC,010533.000,A,2447.0883,N,12100.5164,E,000.0,000.0,050115,,,A*68
$GPRMC,010534.000,A,2447.0885,N,12100.5167,E,000.0,000.0,050115,,,A*6a
$GPRMC,010535.000,A,2447.0885,N,12100.5167,E,000.0,000.0,050115,,,A*6b
$GPRMC,010536.000,A,2447.0885,N,12100.5167,E,000.0,000.0,050115,,,A*68
$GPRMC,010537.000,A,2447.0885,N,12100.5167,E,000.0,000.0,050115,,,A*69
$GPRMC,010538.000,A,2447.0885,N,12100.5167,E,000.0,000.0,050115,,,A*66
$GPRMC,010539.000,A,2447.0885,N,12100.5167,E,000.0,000.0,050115,,,A*67
$GPRMC,010540.000,A,2447.0885,N,12100.5167,E,000.0,000.0,050115,,,A*69
$GPRMC,010541.000,A,2447.0885,N,12100.5167,E,000.0,000.0,050115,,,A*68
$GPRMC,010542.000,A,2447.0885,N,12100.5167,E,000.0,000.0,050115,,,A*6b
$GPRMC,010543.000,A,2447.0885,N,12100.5167,E,000.0,000.0,050115,,,A*6a
$GPRMC,010544.000,A,2447.0885,N,12100.5167,E,000.0,000.0,050115,,,A*6d
$GPRMC,010545.000,A,2447.0885,N,12100.5167,E,000.0,000.0,050115,,,A*6c
$GPRMC,010546.000,A,2447.0885,N,12100.5167,E,000.0,000.0,050115,,,A*6f
$GPRMC,010547.000,A,2447.0885,N,12100.5167,E,000.0,000.0,050115,,,A*6e
$GPRMC,010548.000,A,2447.0885,N,12100.5167,E,000.0,000.0,050115,,,A*61
$GPRMC,010549.000,A,2447.0885,N,12100.5167,E,000.0,000.0,050115,,,A*60
$GPRMC,010550.000,A,2447.0885,N,12100.5167,E,000.0,000.0,050115,,,A*68
$GPRMC,010551.000,A,2447.0885,N,12100.5167,E,000.0,000.0,050115,,,A*69
$GPRMC,010552.000,A,2447.0885,N,12100.5167,E,000.0,000.0,050115,,,A*6a
$GPRMC,010553.000,A,2447.0885,N,12100.5167,E,000.0,000.0,050115,,,A*6b
$GPRMC,010554.000,A,2447.0885,N,12100.5167,E,000.0,000.0,050115,,,A*6c
$GPRMC,010555.000,A,2447.0885,N,12100.5167,E,000.0,000.0,050115,,,A*6d
$GPRMC,010556.000,A,2447.0885,N,12100.5167,E,000.0,000.0,050115,,,A*6e
$GPRMC,010557.000,A,2447.0885,N,12100.5167,E,000.0,000.0,050115,,,A*6f
$GPRMC,010558.000,A,2447.0885,N,12100.5167,E,000.0,000.0,050115,,,A*60
$GPRMC,010559.000,A,2447.0885,N,12100.5167,E,000.0,000.0,050115,,,A*61
$GPRMC,010600.000,A,2447.0885,N,12100.5167,E,000.0,000.0,050115,,,A*6e
$GPRMC,010601.000,A,2447.0885,N,12100.5167,E,000.0,000.0,050115,,,A*6f
$GPRMC,010602.000,A,2447.0885,N,12100.5167,E,000.0,000.0,050115,,,A*6c
$GPRMC,010603.000,A,2447.0885,N,12100.5167,E,000.0,000.0,050115,,,A*6d
$GPRMC,010604.000,A,2447.0885,N,12100.5167,E,000.0,000.0,050115,,,A*6a
$GPRMC,010613.000,A,2447.0810,N,12100.5204,E,000.0,000.0,050115,,,A*66
$GPRMC,010614.000,A,2447.0816,N,12100.5207,E,000.0,000.0,050115,,,A*64
$GPRMC,010615.000,A,2447.0817,N,12100.5204,E,000.0,000.0,050115,,,A*67
$GPRMC,010616.000,A,2447.0818,N,12100.5206,E,000.0,000.0,050115,,,A*69
$GPRMC,010617.000,A,2447.0816,N,12100.5205,E,000.0,000.0,050115,,,A*65
$GPRMC,010618.000,A,2447.0821,N,12100.5207,E,000.0,000.0,050115,,,A*6c
$GPRMC,010619.000,A,2447.0819,N,12100.5205,E,000.0,000.0,050115,,,A*64
$GPRMC,010620.000,A,2447.0821,N,12100.5208,E,000.0,000.0,050115,,,A*68
$GPRMC,010621.000,A,2447.0821,N,12100.5208,E,000.0,000.0,050115,,,A*69
$GPRMC,010622.000,A,2447.0821,N,12100.5208,E,000.0,000.0,050115,,,A*6a
$GPRMC,010623.000,A,2447.0821,N,12100.5208,E,000.0,000.0,050115,,,A*6b
$GPRMC,010624.000,A,2447.0821,N,12100.5208,E,000.0,000.0,050115,,,A*6c
$GPRMC,010625.000,A,2447.0821,N,12100.5208,E,000.0,000.0,050115,,,A*6d
$GPRMC,010626.000,A,2447.0821,N,12100.5208,E,000.0,000.0,050115,,,A*6e
$GPRMC,010627.000,A,2447.0821,N,12100.5208,E,000.0,000.0,050115,,,A*6f
$GPRMC,010628.000,A,2447.0821,N,12100.5208,E,000.0,000.0,050115,,,A*60
$GPRMC,010629.000,A,2447.0821,N,12100.5208,E,000.0,000.0,050115,,,A*61
$GPRMC,010630.000,A,2447.0821,N,12100.5208,E,000.0,000.0,050115,,,A*69
$GPRMC,010631.000,A,2447.0821,N,12100.5208,E,000.0,000.0,050115,,,A*68
$GPRMC,010632.000,A,2447.0821,N,12100.5208,E,000.0,000.0,050115,,,A*6b
$GPRMC,010633.000,A,2447.0821,N,12100.5208,E,000.0,000.0,050115,,,A*6a
$GPRMC,010634.000,A,2447.0821,N,12100.5208,E,000.0,000.0,050115,,,A*6d
$GPRMC,010635.000,A,2447.0821,N,12100.5208,E,000.0,000.0,050115,,,A*6c
$GPRMC,010636.000,A,2447.0821,N,12100.5208,E,000.0,000.0,050115,,,A*6f
$GPRMC,010637.000,A,2447.0821,N,12100.5208,E,000.0,000.0,050115,,,A*6e
$GPRMC,010638.000,A,2447.0821,N,12100.5208,E,000.0,000.0,050115,,,A*61
$GPRMC,010639.000,A,2447.0821,N,12100.5208,E,000.0,000.0,050115,,,A*60
$GPRMC,010647.000,A,2447.0828,N,12100.5233,E,000.0,000.0,050115,,,A*68
$GPRMC,010648.000,A,2447.0831,N,12100.5233,E,000.0,000.0,050115,,,A*6f
$GPRMC,010649.000,A,2447.0833,N,12100.5230,E,000.0,000.0,050115,,,A*6f
$GPRMC,010650.000,A,2447.0833,N,12100.5233,E,000.0,000.0,050115,,,A*64
$GPRMC,010651.000,A,2447.0831,N,12100.5233,E,000.0,000.0,050115,,,A*67
$GPRMC,010652.000,A,2447.0835,N,12100.5231,E,000.0,000.0,050115,,,A*62
$GPRMC,010653.000,A,2447.0835,N,12100.5233,E,000.0,000.0,050115,,,A*61
$GPRMC,010654.000,A,2447.0838,N,12100.5231,E,000.0,000.0,050115,,,A*69
$GPRMC,010655.000,A,2447.0838,N,12100.5231,E,000.0,000.0,050115,,,A*68
$GPRMC,010656.000,A,2447.0838,N,12100.5231,E,000.0,000.0,050115,,,A*6b
$GPRMC,010657.000,A,2447.0838,N,12100.5231,E,000.0,000.0,050115,,,A*6a
$GPRMC,010658.000,A,2447.0838,N,12100.5231,E,000.0,000.0,050115,,,A*65
$GPRMC,010659.000,A,2447.0838,N,12100.5231,E,000.0,000.0,050115,,,A*64
$GPRMC,010700.000,A,2447.0838,N,12100.5231,E,000.0,000.0,050115,,,A*69
$GPRMC,010701.000,A,2447.0838,N,12100.5231,E,000.0,000.0,050115,,,A*68
$GPRMC,010702.000,A,2447.0838,N,12100.5231,E,000.0,000.0,050115,,,A*6b
$GPRMC,010703.000,A,2447.0838,N,12100.5231,E,000.0,000.0,050115,,,A*6a
$GPRMC,010704.000,A,2447.0838,N,12100.5231,E,000.0,000.0,050115,,,A*6d
$GPRMC,010705.000,A,2447.0838,N,12100.5231,E,000.0,000.0,050115,,,A*6c
$GPRMC,010706.000,A,2447.0838,N,12100.5231,E,000.0,000.0,050115,,,A*6f
$GPRMC,010707.000,A,2447.0838,N,12100.5231,E,000.0,000.0,050115,,,A*6e
$GPRMC,010708.000,A,2447.0838,N,12100.5231,E,000.0,000.0,050115,,,A*61
$GPRMC,010709.000,A,2447.0838,N,12100.5231,E,000.0,000.0,050115,,,A*60
$GPRMC,010710.000,A,2447.0838,N,12100.5231,E,000.0,000.0,050115,,,A*68
$GPRMC,010711.000,A,2447.0838,N,12100.5231,E,000.0,000.0,050115,,,A*69
$GPRMC,010712.000,A,2447.0838,N,12100.5231,E,000.0,000.0,050115,,,A*6a
$GPRMC,010713.000,A,2447.0838,N,12100.5231,E,000.0,000.0,050115,,,A*6b
$GPRMC,010714.000,A,2447.0838,N,12100.5231,E,000.0,000.0,050115,,,A*6c
$GPRMC,010715.000,A,2447.0838,N,12100.5231,E,000.0,000.0,050115,,,A*6d
$GPRMC,010716.000,A,2447.0838,N,12100.5231,E,000.0,000.0,050115,,,A*6e
$GPRMC,010717.000,A,2447.0838,N,12100.5231,E,000.0,000.0,050115,,,A*6f
$GPRMC,010718.000,A,2447.0838,N,12100.5231,E,000.0,000.0,050115,,,A*60
$GPRMC,010727.000,A,2447.0867,N,12100.5237,E,000.0,000.0,050115,,,A*60
$GPRMC,010728.000,A,2447.0867,N,12100.5237,E,000.0,000.0,050115,,,A*6f
$GPRMC,010729.000,A,2447.0867,N,12100.5239,E,000.0,000.0,050115,,,A*60
$GPRMC,010730.000,A,2447.0866,N,12100.5231,E,000.0,000.0,050115,,,A*61
$GPRMC,010731.000,A,2447.0868,N,12100.5236,E,000.0,000.0,050115,,,A*69
$GPRMC,010732.000,A,2447.0868,N,12100.5236,E,000.0,000.0,050115,,,A*6a
$GPRMC,010733.000,A,2447.0866,N,12100.5234,E,000.0,000.0,050115,,,A*67
$GPRMC,010734.000,A,2447.0869,N,12100.5237,E,000.0,000.0,050115,,,A*6c
$GPRMC,010735.000,A,2447.0869,N,12100.5237,E,000.0,000.0,050115,,,A*6d
$GPRMC,010736.000,A,2447.0869,N,12100.5237,E,000.0,000.0,050115,,,A*6e
$GPRMC,010737.000,A,2447.0869,N,12100.5237,E,000.0,000.0,050115,,,A*6f
$GPRMC,010738.000,A,2447.0869,N,12100.5237,E,000.0,000.0,050115,,,A*60
$GPRMC,010739.000,A,2447.0869,N,12100.5237,E,000.0,000.0,050115,,,A*61
$GPRMC,010740.000,A,2447.0869,N,12100.5237,E,000.0,000.0,050115,,,A*6f
$GPRMC,010741.000,A,2447.0869,N,12100.5237,E,000.0,000.0,050115,,,A*6e
$GPRMC,010742.000,A,2447.0869,N,12100.5237,E,000.0,000.0,050115,,,A*6d
$GPRMC,010743.000,A,2447.0869,N,12100.5237,E,000.0,000.0,050115,,,A*6c
$GPRMC,010744.000,A,2447.0869,N,12100.5237,E,000.0,000.0,050115,,,A*6b
$GPRMC,010745.000,A,2447.0869,N,12100.5237,E,000.0,000.0,050115,,,A*6a
$GPRMC,010746.000,A,2447.0869,N,12100.5237,E,000.0,000.0,050115,,,A*69
$GPRMC,010747.000,A,2447.0869,N,12100.5237,E,000.0,000.0,050115,,,A*68
$GPRMC,010748.000,A,2447.0869,N,12100.5237,E,000.0,000.0,050115,,,A*67
$GPRMC,010749.000,A,2447.0869,N,12100.5237,E,000.0,000.0,050115,,,A*66
$GPRMC,010750.000,A,2447.0869,N,12100.5237,E,000.0,000.0,050115,,,A*6e
$GPRMC,010751.000,A,2447.0869,N,12100.5237,E,000.0,000.0,050115,,,A*6f
$GPRMC,010752.000,A,2447.0869,N,12100.5237,E,000.0,000.0,050115,,,A*6c
$GPRMC,010753.000,A,2447.0869,N,12100.5237,E,000.0,000.0,050115,,,A*6d
$GPRMC,010754.000,A,2447.0869,N,12100.5237,E,000.0,000.0,050115,,,A*6a
$GPRMC,010755.000,A,2447.0869,N,12100.5237,E,000.0,000.0,050115,,,A*6b
$GPRMC,010756.000,A,2447.0869,N,12100.5237,E,000.0,000.0,050115,,,A*68
$GPRMC,010757.000,A,2447.0869,N,12100.5237,E,000.0,000.0,050115,,,A*69
$GPRMC,010805.000,A,2447.0866,N,12100.5269,E,000.0,000.0,050115,,,A*65
$GPRMC,010806.000,A,2447.0863,N,12100.5265,E,000.0,000.0,050115,,,A*6f
$GPRMC,010807.000,A,2447.0866,N,12100.5264,E,000.0,000.0,050115,,,A*6a
$GPRMC,010808.000,A,2447.0864,N,12100.5262,E,000.0,000.0,050115,,,A*61
$GPRMC,010809.000,A,2447.0866,N,12100.5265,E,000.0,000.0,050115,,,A*65
$GPRMC,010810.000,A,2447.0864,N,12100.5263,E,000.0,000.0,050115,,,A*69
$GPRMC,010811.000,A,2447.0866,N,12100.5258,E,000.0,000.0,050115,,,A*62
$GPRMC,010812.000,A,2447.0864,N,12100.5256,E,000.0,000.0,050115,,,A*6d
$GPRMC,010813.000,A,2447.0864,N,12100.5256,E,000.0,000.0,050115,,,A*6c
$GPRMC,010814.000,A,2447.0864,N,12100.5256,E,000.0,000.0,050115,,,A*6b
$GPRMC,010815.000,A,2447.0864,N,12100.5256,E,000.0,000.0,050115,,,A*6a
$GPRMC,010816.000,A,2447.0864,N,12100.5256,E,000.0,000.0,050115,,,A*69
$GPRMC,010817.000,A,2447.0864,N,12100.5256,E,000.0,000.0,050115,,,A*68
$GPRMC,010818.000,A,2447.0864,N,12100.5256,E,000.0,000.0,050115,,,A*67
$GPRMC,010819.000,A,2447.0864,N,12100.5256,E,000.0,000.0,050115,,,A*66
$GPRMC,010820.000,A,2447.0864,N,12100.5256,E,000.0,000.0,050115,,,A*6c
$GPRMC,010821.000,A,2447.0864,N,12100.5256,E,000.0,000.0,050115,,,A*6d
$GPRMC,010822.000,A,2447.0864,N,12100.5256,E,000.0,000.0,050115,,,A*6e
$GPRMC,010823.000,A,2447.0864,N,12100.5256,E,000.0,000.0,050115,,,A*6f
$GPRMC,010824.000,A,2447.0864,N,12100.5256,E,000.0,000.0,050115,,,A*68
$GPRMC,010825.000,A,2447.0864,N,12100.5256,E,000.0,000.0,050115,,,A*69
$GPRMC,010826.000,A,2447.0864,N,12100.5256,E,000.0,000.0,050115,,,A*6a
$GPRMC,010827.000,A,2447.0864,N,12100.5256,E,000.0,000.0,050115,,,A*6b
$GPRMC,010828.000,A,2447.0864,N,12100.5256,E,000.0,000.0,050115,,,A*64
$GPRMC,010829.000,A,2447.0864,N,12100.5256,E,000.0,000.0,050115,,,A*65
$GPRMC,010830.000,A,2447.0864,N,12100.5256,E,000.0,000.0,050115,,,A*6d
$GPRMC,010831.000,A,2447.0864,N,12100.5256,E,000.0,000.0,050115,,,A*6c
$GPRMC,010832.000,A,2447.0864,N,12100.5256,E,000.0,000.0,050115,,,A*6f
$GPRMC,010833.000,A,2447.0864,N,12100.5256,E,000.0,000.0,050115,,,A*6e
$GPRMC,010834.000,A,2447.0864,N,12100.5256,E,000.0,000.0,050115,,,A*69
$GPRMC,010842.000,A,2447.0967,N,12100.5243,E,000.0,000.0,050115,,,A*6e
$GPRMC,010843.000,A,2447.0943,N,12100.5233,E,000.0,000.0,050115,,,A*6e
$GPRMC,010844.000,A,2447.0941,N,12100.5236,E,000.0,000.0,050115,,,A*6e
$GPRMC,010845.000,A,2447.0943,N,12100.5237,E,000.0,000.0,050115,,,A*6c
$GPRMC,010846.000,A,2447.0941,N,12100.5233,E,000.0,000.0,050115,,,A*69
$GPRMC,010847.000,A,2447.0941,N,12100.5231,E,000.0,000.0,050115,,,A*6a
$GPRMC,010848.000,A,2447.0939,N,12100.5236,E,000.0,000.0,050115,,,A*6d
$GPRMC,010849.000,A,2447.0941,N,12100.5230,E,000.0,000.0,050115,,,A*65
$GPRMC,010850.000,A,2447.0941,N,12100.5230,E,000.0,000.0,050115,,,A*6d
$GPRMC,010851.000,A,2447.0941,N,12100.5230,E,000.0,000.0,050115,,,A*6c
$GPRMC,010852.000,A,2447.0941,N,12100.5230,E,000.0,000.0,050115,,,A*6f
$GPRMC,010853.000,A,2447.0941,N,12100.5230,E,000.0,000.0,050115,,,A*6e
$GPRMC,010854.000,A,2447.0941,N,12100.5230,E,000.0,000.0,050115,,,A*69
$GPRMC,010855.000,A,2447.0941,N,12100.5230,E,000.0,000.0,050115,,,A*68
$GPRMC,010856.000,A,2447.0941,N,12100.5230,E,000.0,000.0,050115,,,A*6b
$GPRMC,010857.000,A,2447.0941,N,12100.5230,E,000.0,000.0,050115,,,A*6a
$GPRMC,010858.000,A,2447.0941,N,12100.5230,E,000.0,000.0,050115,,,A*65
$GPRMC,010859.000,A,2447.0941,N,12100.5230,E,000.0,000.0,050115,,,A*64
$GPRMC,010900.000,A,2447.0941,N,12100.5230,E,000.0,000.0,050115,,,A*69
$GPRMC,010901.000,A,2447.0941,N,12100.5230,E,000.0,000.0,050115,,,A*68
$GPRMC,010902.000,A,2447.0941,N,12100.5230,E,000.0,000.0,050115,,,A*6b
$GPRMC,010903.000,A,2447.0941,N,12100.5230,E,000.0,000.0,050115,,,A*6a
$GPRMC,010904.000,A,2447.0941,N,12100.5230,E,000.0,000.0,050115,,,A*6d
$GPRMC,010905.000,A,2447.0941,N,12100.5230,E,000.0,000.0,050115,,,A*6c
$GPRMC,010906.000,A,2447.0941,N,12100.5230,E,000.0,000.0,050115,,,A*6f
$GPRMC,010907.000,A,2447.0941,N,12100.5230,E,000.0,000.0,050115,,,A*6e
$GPRMC,010908.000,A,2447.0941,N,12100.5230,E,000.0,000.0,050115,,,A*61
$GPRMC,010916.000,A,2447.0897,N,12100.5210,E,000.0,000.0,050115,,,A*66
$GPRMC,010917.000,A,2447.0897,N,12100.5210,E,000.0,000.0,050115,,,A*67
$GPRMC,010918.000,A,2447.0899,N,12100.5213,E,000.0,000.0,050115,,,A*65
$GPRMC,010919.000,A,2447.0897,N,12100.5210,E,000.0,000.0,050115,,,A*69
$GPRMC,010920.000,A,2447.0897,N,12100.5210,E,000.0,000.0,050115,,,A*63
$GPRMC,010921.000,A,2447.0901,N,12100.5215,E,000.0,000.0,050115,,,A*69
$GPRMC,010922.000,A,2447.0899,N,12100.5212,E,000.0,000.0,050115,,,A*6d
$GPRMC,010923.000,A,2447.0899,N,12100.5212,E,000.0,000.0,050115,,,A*6c
$GPRMC,010924.000,A,2447.0896,N,12100.5215,E,000.0,000.0,050115,,,A*63
$GPRMC,010925.000,A,2447.0896,N,12100.5215,E,000.0,000.0,050115,,,A*62
$GPRMC,010926.000,A,2447.0896,N,12100.5215,E,000.0,000.0,050115,,,A*61
$GPRMC,010927.000,A,2447.0896,N,12100.5215,E,000.0,000.0,050115,,,A*60
$GPRMC,010928.000,A,2447.0896,N,12100.5215,E,000.0,000.0,050115,,,A*6f
$GPRMC,010929.000,A,2447.0896,N,12100.5215,E,000.0,000.0,050115,,,A*6e
$GPRMC,010930.000,A,2447.0896,N,12100.5215,E,000.0,000.0,050115,,,A*66
$GPRMC,010931.000,A,2447.0896,N,12100.5215,E,000.0,000.0,050115,,,A*67
$GPRMC,010932.000,A,2447.0896,N,12100.5215,E,000.0,000.0,050115,,,A*64
$GPRMC,010933.000,A,2447.0896,N,12100.5215,E,000.0,000.0,050115,,,A*65
$GPRMC,010934.000,A,2447.0896,N,12100.5215,E,000.0,000.0,050115,,,A*62
$GPRMC,010935.000,A,2447.0896,N,12100.5215,E,000.0,000.0,050115,,,A*63
$GPRMC,010936.000,A,2447.0896,N,12100.5215,E,000.0,000.0,050115,,,A*60
$GPRMC,010937.000,A,2447.0896,N,12100.5215,E,000.0,000.0,050115,,,A*61
$GPRMC,010938.000,A,2447.0896,N,12100.5215,E,000.0,000.0,050115,,,A*6e
$GPRMC,010939.000,A,2447.0896,N,12100.5215,E,000.0,000.0,050115,,,A*6f
$GPRMC,010940.000,A,2447.0896,N,12100.5215,E,000.0,000.0,050115,,,A*61
$GPRMC,010941.000,A,2447.0896,N,12100.5215,E,000.0,000.0,050115,,,A*60
$GPRMC,010942.000,A,2447.0896,N,12100.5215,E,000.0,000.0,050115,,,A*63
$GPRMC,010943.000,A,2447.0896,N,12100.5215,E,000.0,000.0,050115,,,A*62
$GPRMC,010944.000,A,2447.0896,N,12100.5215,E,000.0,000.0,050115,,,A*65
$GPRMC,010945.000,A,2447.0896,N,12100.5215,E,000.0,000.0,050115,,,A*64
$GPRMC,010946.000,A,2447.0896,N,12100.5215,E,000.0,000.0,050115,,,A*67
$GPRMC,010947.000,A,2447.0896,N,12100.5215,E,000.0,000.0,050115,,,A*66
$GPRMC,010948.000,A,2447.0896,N,12100.5215,E,000.0,000.0,050115,,,A*69
$GPRMC,010949.000,A,2447.0896,N,12100.5215,E,000.0,000.0,050115,,,A*68
$GPRMC,010950.000,A,2447.0896,N,12100.5215,E,000.0,000.0,050115,,,A*60
$GPRMC,010959.000,A,2447.0887,N,12100.5193,E,000.0,000.0,050115,,,A*64
$GPRMC,011000.000,A,2447.0887,N,12100.5195,E,000.0,000.0,050115,,,A*66
$GPRMC,011001.000,A,2447.0885,N,12100.5194,E,000.0,000.0,050115,,,A*64
$GPRMC,011002.000,A,2447.0884,N,12100.5193,E,000.0,000.0,050115,,,A*61
$GPRMC,011003.000,A,2447.0883,N,12100.5199,E,000.0,000.0,050115,,,A*6d
$GPRMC,011004.000,A,2447.0881,N,12100.5197,E,000.0,000.0,050115,,,A*66
$GPRMC,011005.000,A,2447.0886,N,12100.5198,E,000.0,000.0,050115,,,A*6f
$GPRMC,011006.000,A,2447.0884,N,12100.5196,E,000.0,000.0,050115,,,A*60
$GPRMC,011007.000,A,2447.0884,N,12100.5196,E,000.0,000.0,050115,,,A*61
$GPRMC,011008.000,A,2447.0884,N,12100.5196,E,000.0,000.0,050115,,,A*6e
$GPRMC,011009.000,A,2447.0884,N,12100.5196,E,000.0,000.0,050115,,,A*6f
$GPRMC,011010.000,A,2447.0884,N,12100.5196,E,000.0,000.0,050115,,,A*67
$GPRMC,011011.000,A,2447.0884,N,12100.5196,E,000.0,000.0,050115,,,A*66
$GPRMC,011012.000,A,2447.0884,N,12100.5196,E,000.0,000.0,050115,,,A*65
$GPRMC,011013.000,A,2447.0884,N,12100.5196,E,000.0,000.0,050115,,,A*64
$GPRMC,011014.000,A,2447.0884,N,12100.5196,E,000.0,000.0,050115,,,A*63
$GPRMC,011015.000,A,2447.0884,N,12100.5196,E,000.0,000.0,050115,,,A*62
$GPRMC,011016.000,A,2447.0884,N,12100.5196,E,000.0,000.0,050115,,,A*61
$GPRMC,011017.000,A,2447.0884,N,12100.5196,E,000.0,000.0,050115,,,A*60
$GPRMC,011018.000,A,2447.0884,N,12100.5196,E,000.0,000.0,050115,,,A*6f
$GPRMC,011019.000,A,2447.0884,N,12100.5196,E,000.0,000.0,050115,,,A*6e
$GPRMC,011020.000,A,2447.0884,N,12100.5196,E,000.0,000.0,050115,,,A*64
$GPRMC,011021.000,A,2447.0884,N,12100.5196,E,000.0,000.0,050115,,,A*65
$GPRMC,011022.000,A,2447.0884,N,12100.5196,E,000.0,000.0,050115,,,A*66
$GPRMC,011023.000,A,2447.0884,N,12100.5196,E,000.0,000.0,050115,,,A*67
$GPRMC,011024.000,A,2447.0884,N,12100.5196,E,000.0,000.0,050115,,,A*60
$GPRMC,011025.000,A,2447.0884,N,12100.5196,E,000.0,000.0,050115,,,A*61
$GPRMC,011026.000,A,2447.0884,N,12100.5196,E,000.0,000.0,050115,,,A*62
$GPRMC,011027.000,A,2447.0884,N,12100.5196,E,000.0,000.0,050115,,,A*63
$GPRMC,011028.000,A,2447.0884,N,12100.5196,E,000.0,000.0,050115,,,A*6c
$GPRMC,011029.000,A,2447.0884,N,12100.5196,E,000.0,000.0,050115,,,A*6d
$GPRMC,011030.000,A,2447.0884,N,12100.5196,E,000.0,000.0,050115,,,A*65
$GPRMC,011031.000,A,2447.0884,N,12100.5196,E,000.0,000.0,050115,,,A*64
$GPRMC,011032.000,A,2447.0884,N,12100.5196,E,000.0,000.0,050115,,,A*67
$GPRMC,011033.000,A,2447.0884,N,12100.5196,E,000.0,000.0,050115,,,A*66
$GPRMC,011041.000,A,2447.0800,N,12100.5272,E,000.0,000.0,050115,,,A*66
$GPRMC,011042.000,A,2447.0804,N,12100.5270,E,000.0,000.0,050115,,,A*63
$GPRMC,011043.000,A,2447.0805,N,12100.5268,E,000.0,000.0,050115,,,A*6a
$GPRMC,011044.000,A,2447.0807,N,12100.5265,E,000.0,000.0,050115,,,A*62
$GPRMC,011045.000,A,2447.0803,N,12100.5261,E,000.0,000.0,050115,,,A*63
$GPRMC,011046.000,A,2447.0805,N,12100.5265,E,000.0,000.0,050115,,,A*62
$GPRMC,011047.000,A,2447.0808,N,12100.5263,E,000.0,000.0,050115,,,A*68
$GPRMC,011048.000,A,2447.0809,N,12100.5265,E,000.0,000.0,050115,,,A*60
$GPRMC,011049.000,A,2447.0809,N,12100.5265,E,000.0,000.0,050115,,,A*61
$GPRMC,011050.000,A,2447.0809,N,12100.5265,E,000.0,000.0,050115,,,A*69
$GPRMC,011051.000,A,2447.0809,N,12100.5265,E,000.0,000.0,050115,,,A*68
$GPRMC,011052.000,A,2447.0809,N,12100.5265,E,000.0,000.0,050115,,,A*6b
$GPRMC,011053.000,A,2447.0809,N,12100.5265,E,000.0,000.0,050115,,,A*6a
$GPRMC,011054.000,A,2447.0809,N,12100.5265,E,000.0,000.0,050115,,,A*6d
$GPRMC,011055.000,A,2447.0809,N,12100.5265,E,000.0,000.0,050115,,,A*6c
$GPRMC,011056.000,A,2447.0809,N,12100.5265,E,000.0,000.0,050115,,,A*6f
$GPRMC,011057.000,A,2447.0809,N,12100.5265,E,000.0,000.0,050115,,,A*6e
$GPRMC,011058.000,A,2447.0809,N,12100.5265,E,000.0,000.0,050115,,,A*61
$GPRMC,011059.000,A,2447.0809,N,12100.5265,E,000.0,000.0,050115,,,A*60
$GPRMC,011100.000,A,2447.0809,N,12100.5265,E,000.0,000.0,050115,,,A*6d
$GPRMC,011101.000,A,2447.0809,N,12100.5265,E,000.0,000.0,050115,,,A*6c
$GPRMC,011102.000,A,2447.0809,N,12100.5265,E,000.0,000.0,050115,,,A*6f
$GPRMC,011103.000,A,2447.0809,N,12100.5265,E,000.0,000.0,050115,,,A*6e
$GPRMC,011104.000,A,2447.0809,N,12100.5265,E,000.0,000.0,050115,,,A*69
$GPRMC,011105.000,A,2447.0809,N,12100.5265,E,000.0,000.0,050115,,,A*68
$GPRMC,011106.000,A,2447.0809,N,12100.5265,E,000.0,000.0,050115,,,A*6b
$GPRMC,011107.000,A,2447.0809,N,12100.5265,E,000.0,000.0,050115,,,A*6a
$GPRMC,011108.000,A,2447.0809,N,12100.5265,E,000.0,000.0,050115,,,A*65
$GPRMC,011109.000,A,2447.0809,N,12100.5265,E,000.0,000.0,050115,,,A*64
$GPRMC,011110.000,A,2447.0809,N,12100.5265,E,000.0,000.0,050115,,,A*6c
$GPRMC,011111.000,A,2447.0809,N,12100.5265,E,000.0,000.0,050115,,,A*6d
$GPRMC,011112.000,A,2447.0809,N,12100.5265,E,000.0,000.0,050115,,,A*6e
$GPRMC,011113.000,A,2447.0809,N,12100.5265,E,000.0,000.0,050115,,,A*6f
$GPRMC,011114.000,A,2447.0809,N,12100.5265,E,000.0,000.0,050115,,,A*68
$GPRMC,011115.000,A,2447.0809,N,12100.5265,E,000.0,000.0,050115,,,A*69
$GPRMC,011116.000,A,2447.0809,N,12100.5265,E,000.0,000.0,050115,,,A*6a
$GPRMC,011117.000,A,2447.0809,N,12100.5265,E,000.0,000.0,050115,,,A*6b
$GPRMC,011118.000,A,2447.0809,N,12100.5265,E,000.0,000.0,050115,,,A*64
$GPRMC,011119.000,A,2447.0809,N,12100.5265,E,000.0,000.0,050115,,,A*65
$GPRMC,011120.000,A,2447.0809,N,12100.5265,E,000.0,000.0,050115,,,A*6f
$GPRMC,011121.000,A,2447.0809,N,12100.5265,E,000.0,000.0,050115,,,A*6e
$GPRMC,011130.000,A,2447.0812,N,12100.5231,E,000.0,000.0,050115,,,A*65
$GPRMC,011131.000,A,2447.0813,N,12100.5230,E,000.0,000.0,050115,,,A*64
$GPRMC,011132.000,A,2447.0815,N,12100.5234,E,000.0,000.0,050115,,,A*65
$GPRMC,011133.000,A,2447.0816,N,12100.5231,E,000.0,000.0,050115,,,A*62
$GPRMC,011134.000,A,2447.0820,N,12100.5230,E,000.0,000.0,050115,,,A*61
$GPRMC,011135.000,A,2447.0820,N,12100.5231,E,000.0,000.0,050115,,,A*61
$GPRMC,011136.000,A,2447.0821,N,12100.5228,E,000.0,000.0,050115,,,A*6b
$GPRMC,011137.000,A,2447.0822,N,12100.5230,E,000.0,000.0,050115,,,A*60
