$GPRMC,075048.000,A,2447.1298,N,12100.5306,E,000.0,000.0,241013,,,A*60
$GPRMC,075053.000,A,2447.1199,N,12100.5344,E,000.0,000.0,241013,,,A*6e
$GPRMC,075058.000,A,2447.1144,N,12100.5340,E,000.0,000.0,241013,,,A*61
$GPRMC,075103.000,A,2447.1076,N,12100.5323,E,000.0,000.0,241013,,,A*6b
$GPRMC,075104.000,A,2447.1076,N,12100.5323,E,000.0,000.0,241013,,,A*6c
$GPRMC,075105.000,A,2447.1076,N,12100.5323,E,000.0,000.0,241013,,,A*6d
$GPRMC,075106.000,A,2447.1076,N,12100.5323,E,000.0,000.0,241013,,,A*6e
$GPRMC,075107.000,A,2447.1076,N,12100.5323,E,000.0,000.0,241013,,,A*6f
$GPRMC,075108.000,A,2447.1076,N,12100.5323,E,000.0,000.0,241013,,,A*60
$GPRMC,075109.000,A,2447.1076,N,12100.5323,E,000.0,000.0,241013,,,A*61
$GPRMC,075110.000,A,2447.1076,N,12100.5323,E,000.0,000.0,241013,,,A*69
$GPRMC,075111.000,A,2447.1076,N,12100.5323,E,000.0,000.0,241013,,,A*68
$GPRMC,075112.000,A,2447.1076,N,12100.5323,E,000.0,000.0,241013,,,A*6b
$GPRMC,075113.000,A,2447.1076,N,12100.5323,E,000.0,000.0,241013,,,A*6a
$GPRMC,075114.000,A,2447.1076,N,12100.5323,E,000.0,000.0,241013,,,A*6d
$GPRMC,075115.000,A,2447.1076,N,12100.5323,E,000.0,000.0,241013,,,A*6c
$GPRMC,075116.000,A,2447.1076,N,12100.5323,E,000.0,000.0,241013,,,A*6f
$GPRMC,075122.000,A,2447.1225,N,12100.5167,E,002.6,000.0,241013,,,A*6a
$GPRMC,075123.000,A,2447.1187,N,12100.5209,E,000.0,000.0,241013,,,A*6f
$GPRMC,075124.000,A,2447.1156,N,12100.5236,E,000.0,000.0,241013,,,A*68
$GPRMC,075125.000,A,2447.1112,N,12100.5256,E,000.0,000.0,241013,,,A*6f
$GPRMC,075126.000,A,2447.1088,N,12100.5263,E,000.0,000.0,241013,,,A*68
$GPRMC,075127.000,A,2447.1073,N,12100.5275,E,000.0,000.0,241013,,,A*6a
$GPRMC,075128.000,A,2447.1057,N,12100.5279,E,000.0,000.0,241013,,,A*6f
$GPRMC,075129.000,A,2447.1052,N,12100.5278,E,000.0,000.0,241013,,,A*6a
$GPRMC,075130.000,A,2447.1044,N,12100.5279,E,000.0,000.0,241013,,,A*64
$GPRMC,075131.000,A,2447.1041,N,12100.5288,E,000.0,000.0,241013,,,A*6e
$GPRMC,075132.000,A,2447.1040,N,12100.5293,E,000.0,000.0,241013,,,A*66
$GPRMC,075133.000,A,2447.1040,N,12100.5293,E,000.0,000.0,241013,,,A*67
$GPRMC,075134.000,A,2447.1040,N,12100.5293,E,000.0,000.0,241013,,,A*60
$GPRMC,075135.000,A,2447.1040,N,12100.5293,E,000.0,000.0,241013,,,A*61
$GPRMC,075136.000,A,2447.1040,N,12100.5293,E,000.0,000.0,241013,,,A*62
$GPRMC,075137.000,A,2447.1040,N,12100.5293,E,000.0,000.0,241013,,,A*63
$GPRMC,075138.000,A,2447.1040,N,12100.5293,E,000.0,000.0,241013,,,A*6c
$GPRMC,075139.000,A,2447.1040,N,12100.5293,E,000.0,000.0,241013,,,A*6d
$GPRMC,075140.000,A,2447.1040,N,12100.5293,E,000.0,000.0,241013,,,A*63
$GPRMC,075141.000,A,2447.1040,N,12100.5293,E,000.0,000.0,241013,,,A*62
$GPRMC,075142.000,A,2447.1040,N,12100.5293,E,000.0,000.0,241013,,,A*61
$GPRMC,075143.000,A,2447.1040,N,12100.5293,E,000.0,000.0,241013,,,A*60
$GPRMC,075144.000,A,2447.1040,N,12100.5293,E,000.0,000.0,241013,,,A*67
$GPRMC,075145.000,A,2447.1040,N,12100.5293,E,000.0,000.0,241013,,,A*66
$GPRMC,075146.000,A,2447.1040,N,12100.5293,E,000.0,000.0,241013,,,A*65
$GPRMC,075147.000,A,2447.1040,N,12100.5293,E,000.0,000.0,241013,,,A*64
$GPRMC,075148.000,A,2447.1040,N,12100.5293,E,000.0,000.0,241013,,,A*6b
$GPRMC,075149.000,A,2447.1040,N,12100.5293,E,000.0,000.0,241013,,,A*6a
$GPRMC,075150.000,A,2447.1040,N,12100.5293,E,000.0,000.0,241013,,,A*62
$GPRMC,075151.000,A,2447.0989,N,12100.5276,E,000.0,000.0,241013,,,A*65
$GPRMC,075152.000,A,2447.0989,N,12100.5276,E,000.0,000.0,241013,,,A*66
$GPRMC,075153.000,A,2447.0989,N,12100.5276,E,000.0,000.0,241013,,,A*67
$GPRMC,075154.000,A,2447.0989,N,12100.5276,E,000.0,000.0,241013,,,A*60
$GPRMC,075155.000,A,2447.0980,N,12100.5271,E,000.0,000.0,241013,,,A*6f
$GPRMC,075156.000,A,2447.0982,N,12100.5260,E,000.0,000.0,241013,,,A*6e
$GPRMC,075157.000,A,2447.0982,N,12100.5260,E,000.0,000.0,241013,,,A*6f
$GPRMC,075158.000,A,2447.0982,N,12100.5260,E,000.0,000.0,241013,,,A*60
$GPRMC,075159.000,A,2447.0982,N,12100.5260,E,000.0,000.0,241013,,,A*61
$GPRMC,075200.000,A,2447.0982,N,12100.5260,E,000.0,000.0,241013,,,A*6e
$GPRMC,075201.000,A,2447.0982,N,12100.5260,E,000.0,000.0,241013,,,A*6f
$GPRMC,075202.000,A,2447.0982,N,12100.5260,E,000.0,000.0,241013,,,A*6c
$GPRMC,075203.000,A,2447.0982,N,12100.5260,E,000.0,000.0,241013,,,A*6d
$GPRMC,075204.000,A,2447.0982,N,12100.5260,E,000.0,000.0,241013,,,A*6a
$GPRMC,075205.000,A,2447.0982,N,12100.5260,E,000.0,000.0,241013,,,A*6b
$GPRMC,075206.000,A,2447.0982,N,12100.5260,E,000.0,000.0,241013,,,A*68
$GPRMC,075207.000,A,2447.0982,N,12100.5260,E,000.0,000.0,241013,,,A*69
$GPRMC,075208.000,A,2447.0982,N,12100.5260,E,000.0,000.0,241013,,,A*66
$GPRMC,075209.000,A,2447.0982,N,12100.5260,E,000.0,000.0,241013,,,A*67
$GPRMC,075210.000,A,2447.0982,N,12100.5260,E,000.0,000.0,241013,,,A*6f
$GPRMC,075211.000,A,2447.0982,N,12100.5260,E,000.0,000.0,241013,,,A*6e
$GPRMC,075212.000,A,2447.0982,N,12100.5260,E,000.0,000.0,241013,,,A*6d
$GPRMC,075213.000,A,2447.0982,N,12100.5260,E,000.0,000.0,241013,,,A*6c
$GPRMC,075214.000,A,2447.0982,N,12100.5260,E,000.0,000.0,241013,,,A*6b
$GPRMC,075215.000,A,2447.0982,N,12100.5260,E,000.0,000.0,241013,,,A*6a
$GPRMC,075216.000,A,2447.0982,N,12100.5260,E,000.0,000.0,241013,,,A*69
$GPRMC,075217.000,A,2447.0982,N,12100.5260,E,000.0,000.0,241013,,,A*68
$GPRMC,075218.000,A,2447.0982,N,12100.5260,E,000.0,000.0,241013,,,A*67
$GPRMC,075219.000,A,2447.0982,N,12100.5260,E,000.0,000.0,241013,,,A*66
$GPRMC,075220.000,A,2447.0982,N,12100.5260,E,000.0,000.0,241013,,,A*6c
$GPRMC,075221.000,A,2447.0982,N,12100.5260,E,000.0,000.0,241013,,,A*6d
$GPRMC,075222.000,A,2447.0982,N,12100.5260,E,000.0,000.0,241013,,,A*6e
$GPRMC,075223.000,A,2447.0982,N,12100.5260,E,000.0,000.0,241013,,,A*6f
$GPRMC,075224.000,A,2447.0982,N,12100.5260,E,000.0,000.0,241013,,,A*68
$GPRMC,075225.000,A,2447.0982,N,12100.5260,E,000.0,000.0,241013,,,A*69
$GPRMC,075226.000,A,2447.0982,N,12100.5260,E,000.0,000.0,241013,,,A*6a
$GPRMC,075227.000,A,2447.0982,N,12100.5260,E,000.0,000.0,241013,,,A*6b
$GPRMC,075228.000,A,2447.0982,N,12100.5260,E,000.0,000.0,241013,,,A*64
$GPRMC,075229.000,A,2447.0982,N,12100.5260,E,000.0,000.0,241013,,,A*65
$GPRMC,075230.000,A,2447.0982,N,12100.5260,E,000.0,000.0,241013,,,A*6d
$GPRMC,075231.000,A,2447.0982,N,12100.5260,E,000.0,000.0,241013,,,A*6c
$GPRMC,075232.000,A,2447.0982,N,12100.5260,E,000.0,000.0,241013,,,A*6f
$GPRMC,075233.000,A,2447.0982,N,12100.5260,E,000.0,000.0,241013,,,A*6e
$GPRMC,075234.000,A,2447.0982,N,12100.5260,E,000.0,000.0,241013,,,A*69
$GPRMC,075235.000,A,2447.0982,N,12100.5260,E,000.0,000.0,241013,,,A*68
$GPRMC,075236.000,A,2447.0982,N,12100.5260,E,000.0,000.0,241013,,,A*6b
$GPRMC,075237.000,A,2447.0982,N,12100.5260,E,000.0,000.0,241013,,,A*6a
$GPRMC,075238.000,A,2447.1004,N,12100.5234,E,000.0,000.0,241013,,,A*62
$GPRMC,075239.000,A,2447.1004,N,12100.5234,E,000.0,000.0,241013,,,A*63
$GPRMC,075240.000,A,2447.1004,N,12100.5234,E,000.0,000.0,241013,,,A*6d
$GPRMC,075241.000,A,2447.1004,N,12100.5234,E,000.0,000.0,241013,,,A*6c
$GPRMC,075242.000,A,2447.1004,N,12100.5234,E,000.0,000.0,241013,,,A*6f
$GPRMC,075243.000,A,2447.1004,N,12100.5234,E,000.0,000.0,241013,,,A*6e
$GPRMC,075244.000,A,2447.1004,N,12100.5234,E,000.0,000.0,241013,,,A*69
$GPRMC,075245.000,A,2447.1004,N,12100.5234,E,000.0,000.0,241013,,,A*68
$GPRMC,075246.000,A,2447.1004,N,12100.5234,E,000.0,000.0,241013,,,A*6b
$GPRMC,075247.000,A,2447.1004,N,12100.5234,E,000.0,000.0,241013,,,A*6a
$GPRMC,075248.000,A,2447.1004,N,12100.5234,E,000.0,000.0,241013,,,A*65
$GPRMC,075249.000,A,2447.1004,N,12100.5234,E,000.0,000.0,241013,,,A*64
$GPRMC,075250.000,A,2447.1004,N,12100.5234,E,000.0,000.0,241013,,,A*6c
$GPRMC,075251.000,A,2447.1004,N,12100.5234,E,000.0,000.0,241013,,,A*6d
$GPRMC,075252.000,A,2447.1004,N,12100.5234,E,000.0,000.0,241013,,,A*6e
$GPRMC,075253.000,A,2447.1004,N,12100.5234,E,000.0,000.0,241013,,,A*6f
$GPRMC,075254.000,A,2447.1004,N,12100.5234,E,000.0,000.0,241013,,,A*68
$GPRMC,075255.000,A,2447.1004,N,12100.5234,E,000.0,000.0,241013,,,A*69
$GPRMC,075256.000,A,2447.1004,N,12100.5234,E,000.0,000.0,241013,,,A*6a
$GPRMC,075257.000,A,2447.1004,N,12100.5234,E,000.0,000.0,241013,,,A*6b
$GPRMC,075258.000,A,2447.1004,N,12100.5234,E,000.0,000.0,241013,,,A*64
$GPRMC,075259.000,A,2447.1004,N,12100.5234,E,000.0,000.0,241013,,,A*65
$GPRMC,075300.000,A,2447.1004,N,12100.5234,E,000.0,000.0,241013,,,A*68
$GPRMC,075301.000,A,2447.1004,N,12100.5234,E,000.0,000.0,241013,,,A*69
$GPRMC,075302.000,A,2447.1004,N,12100.5234,E,000.0,000.0,241013,,,A*6a
$GPRMC,075303.000,A,2447.1004,N,12100.5234,E,000.0,000.0,241013,,,A*6b
$GPRMC,075304.000,A,2447.1004,N,12100.5234,E,000.0,000.0,241013,,,A*6c
$GPRMC,075305.000,A,2447.1004,N,12100.5234,E,000.0,000.0,241013,,,A*6d
$GPRMC,075306.000,A,2447.1004,N,12100.5234,E,000.0,000.0,241013,,,A*6e
$GPRMC,075307.000,A,2447.1004,N,12100.5234,E,000.0,000.0,241013,,,A*6f
$GPRMC,075308.000,A,2447.1004,N,12100.5234,E,000.0,000.0,241013,,,A*60
$GPRMC,075309.000,A,2447.1004,N,12100.5234,E,000.0,000.0,241013,,,A*61
$GPRMC,075310.000,A,2447.1004,N,12100.5234,E,000.0,000.0,241013,,,A*69
$GPRMC,075311.000,A,2447.1004,N,12100.5234,E,000.0,000.0,241013,,,A*68
$GPRMC,075312.000,A,2447.1004,N,12100.5234,E,000.0,000.0,241013,,,A*6b
$GPRMC,075313.000,A,2447.1004,N,12100.5234,E,000.0,000.0,241013,,,A*6a
$GPRMC,075314.000,A,2447.1004,N,12100.5234,E,000.0,000.0,241013,,,A*6d
$GPRMC,075315.000,A,2447.1004,N,12100.5234,E,000.0,000.0,241013,,,A*6c
$GPRMC,075316.000,A,2447.1004,N,12100.5234,E,000.0,000.0,241013,,,A*6f
$GPRMC,075317.000,A,2447.1004,N,12100.5234,E,000.0,000.0,241013,,,A*6e
$GPRMC,075318.000,A,2447.1004,N,12100.5234,E,000.0,000.0,241013,,,A*61
$GPRMC,075319.000,A,2447.1004,N,12100.5234,E,000.0,000.0,241013,,,A*60
$GPRMC,075320.000,A,2447.1004,N,12100.5234,E,000.0,000.0,241013,,,A*6a
$GPRMC,075321.000,A,2447.1004,N,12100.5234,E,000.0,000.0,241013,,,A*6b
$GPRMC,075322.000,A,2447.1004,N,12100.5234,E,000.0,000.0,241013,,,A*68
$GPRMC,075323.000,A,2447.1004,N,12100.5234,E,000.0,000.0,241013,,,A*69
$GPRMC,075324.000,A,2447.1004,N,12100.5234,E,000.0,000.0,241013,,,A*6e
$GPRMC,075325.000,A,2447.1004,N,12100.5234,E,000.0,000.0,241013,,,A*6f
$GPRMC,075326.000,A,2447.1004,N,12100.5234,E,000.0,000.0,241013,,,A*6c
$GPRMC,075327.000,A,2447.1004,N,12100.5234,E,000.0,000.0,241013,,,A*6d
$GPRMC,075328.000,A,2447.1004,N,12100.5234,E,000.0,000.0,241013,,,A*62
$GPRMC,075329.000,A,2447.1004,N,12100.5234,E,000.0,000.0,241013,,,A*63
$GPRMC,075330.000,A,2447.1004,N,12100.5234,E,000.0,000.0,241013,,,A*6b
$GPRMC,075331.000,A,2447.1004,N,12100.5234,E,000.0,000.0,241013,,,A*6a
$GPRMC,075332.000,A,2447.1004,N,12100.5234,E,000.0,000.0,241013,,,A*69
$GPRMC,075333.000,A,2447.1004,N,12100.5234,E,000.0,000.0,241013,,,A*68
$GPRMC,075334.000,A,2447.1004,N,12100.5234,E,000.0,000.0,241013,,,A*6f
$GPRMC,075335.000,A,2447.1004,N,12100.5234,E,000.0,000.0,241013,,,A*6e
$GPRMC,075336.000,A,2447.1004,N,12100.5234,E,000.0,000.0,241013,,,A*6d
$GPRMC,075337.000,A,2447.1004,N,12100.5234,E,000.0,000.0,241013,,,A*6c
$GPRMC,075338.000,A,2447.1004,N,12100.5234,E,000.0,000.0,241013,,,A*63
$GPRMC,075339.000,A,2447.1004,N,12100.5234,E,000.0,000.0,241013,,,A*62
$GPRMC,075340.000,A,2447.1004,N,12100.5234,E,000.0,000.0,241013,,,A*6c
$GPRMC,075341.000,A,2447.1004,N,12100.5234,E,000.0,000.0,241013,,,A*6d
$GPRMC,075342.000,A,2447.1004,N,12100.5234,E,000.0,000.0,241013,,,A*6e
$GPRMC,075343.000,A,2447.1004,N,12100.5234,E,000.0,000.0,241013,,,A*6f
$GPRMC,075344.000,A,2447.1004,N,12100.5234,E,000.0,000.0,241013,,,A*68
$GPRMC,075345.000,A,2447.1004,N,12100.5234,E,000.0,000.0,241013,,,A*69
$GPRMC,075346.000,A,2447.1004,N,12100.5234,E,000.0,000.0,241013,,,A*6a
$GPRMC,075347.000,A,2447.1004,N,12100.5234,E,000.0,000.0,241013,,,A*6b
$GPRMC,075348.000,A,2447.1004,N,12100.5234,E,000.0,000.0,241013,,,A*64
$GPRMC,075349.000,A,2447.1004,N,12100.5234,E,000.0,000.0,241013,,,A*65
$GPRMC,075350.000,A,2447.1004,N,12100.5234,E,000.0,000.0,241013,,,A*6d
$GPRMC,075351.000,A,2447.1004,N,12100.5234,E,000.0,000.0,241013,,,A*6c
$GPRMC,075352.000,A,2447.1004,N,12100.5234,E,000.0,000.0,241013,,,A*6f
$GPRMC,075353.000,A,2447.1004,N,12100.5234,E,000.0,000.0,241013,,,A*6e
$GPRMC,075354.000,A,2447.1004,N,12100.5234,E,000.0,000.0,241013,,,A*69
$GPRMC,075355.000,A,2447.1004,N,12100.5234,E,000.0,000.0,241013,,,A*68
$GPRMC,075356.000,A,2447.1004,N,12100.5234,E,000.0,000.0,241013,,,A*6b
$GPRMC,075357.000,A,2447.1004,N,12100.5234,E,000.0,000.0,241013,,,A*6a
$GPRMC,075358.000,A,2447.1004,N,12100.5234,E,000.0,000.0,241013,,,A*65
$GPRMC,075359.000,A,2447.1004,N,12100.5234,E,000.0,000.0,241013,,,A*64
$GPRMC,075400.000,A,2447.1004,N,12100.5234,E,000.0,000.0,241013,,,A*6f
$GPRMC,075401.000,A,2447.1004,N,12100.5234,E,000.0,000.0,241013,,,A*6e
$GPRMC,075402.000,A,2447.1004,N,12100.5234,E,000.0,000.0,241013,,,A*6d
$GPRMC,075403.000,A,2447.1004,N,12100.5234,E,000.0,000.0,241013,,,A*6c
$GPRMC,075404.000,A,2447.1004,N,12100.5234,E,000.0,000.0,241013,,,A*6b
$GPRMC,075405.000,A,2447.1004,N,12100.5234,E,000.0,000.0,241013,,,A*6a
$GPRMC,075406.000,A,2447.1004,N,12100.5234,E,000.0,000.0,241013,,,A*69
$GPRMC,075407.000,A,2447.1004,N,12100.5234,E,000.0,000.0,241013,,,A*68
$GPRMC,075408.000,A,2447.1004,N,12100.5234,E,000.0,000.0,241013,,,A*67
$GPRMC,075409.000,A,2447.1004,N,12100.5234,E,000.0,000.0,241013,,,A*66
$GPRMC,075410.000,A,2447.1004,N,12100.5234,E,000.0,000.0,241013,,,A*6e
$GPRMC,075411.000,A,2447.1004,N,12100.5234,E,000.0,000.0,241013,,,A*6f
$GPRMC,075412.000,A,2447.1004,N,12100.5234,E,000.0,000.0,241013,,,A*6c
$GPRMC,075413.000,A,2447.1004,N,12100.5234,E,000.0,000.0,241013,,,A*6d
$GPRMC,075414.000,A,2447.1004,N,12100.5234,E,000.0,000.0,241013,,,A*6a
$GPRMC,075415.000,A,2447.1004,N,12100.5234,E,000.0,000.0,241013,,,A*6b
$GPRMC,075416.000,A,2447.1004,N,12100.5234,E,000.0,000.0,241013,,,A*68
$GPRMC,075417.000,A,2447.1004,N,12100.5234,E,000.0,000.0,241013,,,A*69
$GPRMC,075418.000,A,2447.1004,N,12100.5234,E,000.0,000.0,241013,,,A*66
$GPRMC,075419.000,A,2447.1004,N,12100.5234,E,000.0,000.0,241013,,,A*67
$GPRMC,075420.000,A,2447.1004,N,12100.5234,E,000.0,000.0,241013,,,A*6d
$GPRMC,075421.000,A,2447.1004,N,12100.5234,E,000.0,000.0,241013,,,A*6c
$GPRMC,075422.000,A,2447.1004,N,12100.5234,E,000.0,000.0,241013,,,A*6f
$GPRMC,075423.000,A,2447.1004,N,12100.5234,E,000.0,000.0,241013,,,A*6e
$GPRMC,075424.000,A,2447.1004,N,12100.5234,E,000.0,000.0,241013,,,A*69
$GPRMC,075425.000,A,2447.1004,N,12100.5234,E,000.0,000.0,241013,,,A*68
$GPRMC,075426.000,A,2447.1004,N,12100.5234,E,000.0,000.0,241013,,,A*6b
$GPRMC,075427.000,A,2447.1004,N,12100.5234,E,000.0,000.0,241013,,,A*6a
$GPRMC,075428.000,A,2447.1004,N,12100.5234,E,000.0,000.0,241013,,,A*65
$GPRMC,075429.000,A,2447.1004,N,12100.5234,E,000.0,000.0,241013,,,A*64
$GPRMC,075430.000,A,2447.1004,N,12100.5234,E,000.0,000.0,241013,,,A*6c
$GPRMC,075431.000,A,2447.1004,N,12100.5234,E,000.0,000.0,241013,,,A*6d
$GPRMC,075432.000,A,2447.1004,N,12100.5234,E,000.0,000.0,241013,,,A*6e
$GPRMC,075433.000,A,2447.1004,N,12100.5234,E,000.0,000.0,241013,,,A*6f
$GPRMC,075434.000,A,2447.1004,N,12100.5234,E,000.0,000.0,241013,,,A*68
$GPRMC,075435.000,A,2447.1004,N,12100.5234,E,000.0,000.0,241013,,,A*69
$GPRMC,075436.000,A,2447.1004,N,12100.5234,E,000.0,000.0,241013,,,A*6a
$GPRMC,075437.000,A,2447.1004,N,12100.5234,E,000.0,000.0,241013,,,A*6b
$GPRMC,075438.000,A,2447.1004,N,12100.5234,E,000.0,000.0,241013,,,A*64
$GPRMC,075439.000,A,2447.1004,N,12100.5234,E,000.0,000.0,241013,,,A*65
$GPRMC,075440.000,A,2447.1004,N,12100.5234,E,000.0,000.0,241013,,,A*6b
$GPRMC,075441.000,A,2447.1004,N,12100.5234,E,000.0,000.0,241013,,,A*6a
$GPRMC,075442.000,A,2447.1004,N,12100.5234,E,000.0,000.0,241013,,,A*69
$GPRMC,075443.000,A,2447.1004,N,12100.5234,E,000.0,000.0,241013,,,A*68
$GPRMC,075444.000,A,2447.1004,N,12100.5234,E,000.0,000.0,241013,,,A*6f
$GPRMC,075445.000,A,2447.1004,N,12100.5234,E,000.0,000.0,241013,,,A*6e
$GPRMC,075446.000,A,2447.1004,N,12100.5234,E,000.0,000.0,241013,,,A*6d
$GPRMC,075447.000,A,2447.1004,N,12100.5234,E,000.0,000.0,241013,,,A*6c
$GPRMC,075448.000,A,2447.1004,N,12100.5234,E,000.0,000.0,241013,,,A*63
$GPRMC,075449.000,A,2447.1004,N,12100.5234,E,000.0,000.0,241013,,,A*62
$GPRMC,075450.000,A,2447.1004,N,12100.5234,E,000.0,000.0,241013,,,A*6a
$GPRMC,075451.000,A,2447.1004,N,12100.5234,E,000.0,000.0,241013,,,A*6b
$GPRMC,075452.000,A,2447.1004,N,12100.5234,E,000.0,000.0,241013,,,A*68
$GPRMC,075453.000,A,2447.1004,N,12100.5234,E,000.0,000.0,241013,,,A*69
$GPRMC,075454.000,A,2447.1004,N,12100.5234,E,000.0,000.0,241013,,,A*6e
$GPRMC,075455.000,A,2447.1004,N,12100.5234,E,000.0,000.0,241013,,,A*6f
$GPRMC,075456.000,A,2447.1004,N,12100.5234,E,000.0,000.0,241013,,,A*6c
$GPRMC,075457.000,A,2447.1004,N,12100.5234,E,000.0,000.0,241013,,,A*6d
$GPRMC,075458.000,A,2447.1004,N,12100.5234,E,000.0,000.0,241013,,,A*62
$GPRMC,075459.000,A,2447.1004,N,12100.5234,E,000.0,000.0,241013,,,A*63
$GPRMC,075500.000,A,2447.1004,N,12100.5234,E,000.0,000.0,241013,,,A*6e
$GPRMC,075501.000,A,2447.1004,N,12100.5234,E,000.0,000.0,241013,,,A*6f
$GPRMC,075502.000,A,2447.1004,N,12100.5234,E,000.0,000.0,241013,,,A*6c
$GPRMC,075503.000,A,2447.1004,N,12100.5234,E,000.0,000.0,241013,,,A*6d
$GPRMC,075504.000,A,2447.1004,N,12100.5234,E,000.0,000.0,241013,,,A*6a
$GPRMC,075505.000,A,2447.1004,N,12100.5234,E,000.0,000.0,241013,,,A*6b
$GPRMC,075506.000,A,2447.1004,N,12100.5234,E,000.0,000.0,241013,,,A*68
$GPRMC,075507.000,A,2447.1004,N,12100.5234,E,000.0,000.0,241013,,,A*69
$GPRMC,075508.000,A,2447.1004,N,12100.5234,E,000.0,000.0,241013,,,A*66
$GPRMC,075509.000,A,2447.1004,N,12100.5234,E,000.0,000.0,241013,,,A*67
$GPRMC,075510.000,A,2447.1004,N,12100.5234,E,000.0,000.0,241013,,,A*6f
$GPRMC,075511.000,A,2447.1004,N,12100.5234,E,000.0,000.0,241013,,,A*6e
$GPRMC,075512.000,A,2447.1004,N,12100.5234,E,000.0,000.0,241013,,,A*6d
$GPRMC,075513.000,A,2447.1004,N,12100.5234,E,000.0,000.0,241013,,,A*6c
$GPRMC,075514.000,A,2447.1004,N,12100.5234,E,000.0,000.0,241013,,,A*6b
$GPRMC,075515.000,A,2447.1004,N,12100.5234,E,000.0,000.0,241013,,,A*6a
$GPRMC,075516.000,A,2447.1004,N,12100.5234,E,000.0,000.0,241013,,,A*69
$GPRMC,075517.000,A,2447.1004,N,12100.5234,E,000.0,000.0,241013,,,A*68
$GPRMC,075518.000,A,2447.1004,N,12100.5234,E,000.0,000.0,241013,,,A*67
$GPRMC,075519.000,A,2447.1004,N,12100.5234,E,000.0,000.0,241013,,,A*66
$GPRMC,075520.000,A,2447.1004,N,12100.5234,E,000.0,000.0,241013,,,A*6c
$GPRMC,075521.000,A,2447.1004,N,12100.5234,E,000.0,000.0,241013,,,A*6d
$GPRMC,075522.000,A,2447.1004,N,12100.5234,E,000.0,000.0,241013,,,A*6e
$GPRMC,075523.000,A,2447.1004,N,12100.5234,E,000.0,000.0,241013,,,A*6f
$GPRMC,075524.000,A,2447.1004,N,12100.5234,E,000.0,000.0,241013,,,A*68
$GPRMC,075525.000,A,2447.1004,N,12100.5234,E,000.0,000.0,241013,,,A*69
$GPRMC,075526.000,A,2447.1004,N,12100.5234,E,000.0,000.0,241013,,,A*6a
$GPRMC,075527.000,A,2447.1004,N,12100.5234,E,000.0,000.0,241013,,,A*6b
$GPRMC,075528.000,A,2447.1004,N,12100.5234,E,000.0,000.0,241013,,,A*64
$GPRMC,075529.000,A,2447.1004,N,12100.5234,E,000.0,000.0,241013,,,A*65
$GPRMC,075530.000,A,2447.1004,N,12100.5234,E,000.0,000.0,241013,,,A*6d
$GPRMC,075531.000,A,2447.1004,N,12100.5234,E,000.0,000.0,241013,,,A*6c
$GPRMC,075532.000,A,2447.1004,N,12100.5234,E,000.0,000.0,241013,,,A*6f
$GPRMC,075533.000,A,2447.1004,N,12100.5234,E,000.0,000.0,241013,,,A*6e
$GPRMC,075534.000,A,2447.1004,N,12100.5234,E,000.0,000.0,241013,,,A*69
$GPRMC,075535.000,A,2447.1004,N,12100.5234,E,000.0,000.0,241013,,,A*68
$GPRMC,075536.000,A,2447.1004,N,12100.5234,E,000.0,000.0,241013,,,A*6b
$GPRMC,075537.000,A,2447.1004,N,12100.5234,E,000.0,000.0,241013,,,A*6a
$GPRMC,075538.000,A,2447.1004,N,12100.5234,E,000.0,000.0,241013,,,A*65
$GPRMC,075539.000,A,2447.1004,N,12100.5234,E,000.0,000.0,241013,,,A*64
$GPRMC,075540.000,A,2447.1004,N,12100.5234,E,000.0,000.0,241013,,,A*6a
$GPRMC,075541.000,A,2447.1004,N,12100.5234,E,000.0,000.0,241013,,,A*6b
$GPRMC,075542.000,A,2447.1004,N,12100.5234,E,000.0,000.0,241013,,,A*68
$GPRMC,075543.000,A,2447.1004,N,12100.5234,E,000.0,000.0,241013,,,A*69
$GPRMC,075544.000,A,2447.1004,N,12100.5234,E,000.0,000.0,241013,,,A*6e
$GPRMC,075545.000,A,2447.1004,N,12100.5234,E,000.0,000.0,241013,,,A*6f
$GPRMC,075546.000,A,2447.1004,N,12100.5234,E,000.0,000.0,241013,,,A*6c
$GPRMC,075547.000,A,2447.1004,N,12100.5234,E,000.0,000.0,241013,,,A*6d
$GPRMC,075548.000,A,2447.1004,N,12100.5234,E,000.0,000.0,241013,,,A*62
$GPRMC,075549.000,A,2447.1004,N,12100.5234,E,000.0,000.0,241013,,,A*63
$GPRMC,075550.000,A,2447.1004,N,12100.5234,E,000.0,000.0,241013,,,A*6b
$GPRMC,075551.000,A,2447.1004,N,12100.5234,E,000.0,000.0,241013,,,A*6a
$GPRMC,075552.000,A,2447.1004,N,12100.5234,E,000.0,000.0,241013,,,A*69
$GPRMC,075553.000,A,2447.1004,N,12100.5234,E,000.0,000.0,241013,,,A*68
$GPRMC,075554.000,A,2447.1004,N,12100.5234,E,000.0,000.0,241013,,,A*6f
$GPRMC,075555.000,A,2447.1004,N,12100.5234,E,000.0,000.0,241013,,,A*6e
$GPRMC,075556.000,A,2447.1004,N,12100.5234,E,000.0,000.0,241013,,,A*6d
$GPRMC,075557.000,A,2447.1004,N,12100.5234,E,000.0,000.0,241013,,,A*6c
$GPRMC,075558.000,A,2447.1023,N,12100.5259,E,000.0,000.0,241013,,,A*6d
$GPRMC,075559.000,A,2447.1023,N,12100.5259,E,000.0,000.0,241013,,,A*6c
$GPRMC,075600.000,A,2447.1023,N,12100.5259,E,000.0,000.0,241013,,,A*63
$GPRMC,075601.000,A,2447.1023,N,12100.5259,E,000.0,000.0,241013,,,A*62
$GPRMC,075602.000,A,2447.1023,N,12100.5259,E,000.0,000.0,241013,,,A*61
$GPRMC,075603.000,A,2447.1023,N,12100.5259,E,000.0,000.0,241013,,,A*60
$GPRMC,075604.000,A,2447.1023,N,12100.5259,E,000.0,000.0,241013,,,A*67
$GPRMC,075605.000,A,2447.1023,N,12100.5259,E,000.0,000.0,241013,,,A*66
$GPRMC,075606.000,A,2447.1023,N,12100.5259,E,000.0,000.0,241013,,,A*65
$GPRMC,075607.000,A,2447.1023,N,12100.5259,E,000.0,000.0,241013,,,A*64
$GPRMC,075608.000,A,2447.1023,N,12100.5259,E,000.0,000.0,241013,,,A*6b
$GPRMC,075609.000,A,2447.1023,N,12100.5259,E,000.0,000.0,241013,,,A*6a
$GPRMC,075610.000,A,2447.1023,N,12100.5259,E,000.0,000.0,241013,,,A*62
$GPRMC,075611.000,A,2447.1023,N,12100.5259,E,000.0,000.0,241013,,,A*63
$GPRMC,075612.000,A,2447.1023,N,12100.5259,E,000.0,000.0,241013,,,A*60
$GPRMC,075613.000,A,2447.1023,N,12100.5259,E,000.0,000.0,241013,,,A*61
$GPRMC,075614.000,A,2447.1023,N,12100.5259,E,000.0,000.0,241013,,,A*66
$GPRMC,075615.000,A,2447.1023,N,12100.5259,E,000.0,000.0,241013,,,A*67
$GPRMC,075616.000,A,2447.1023,N,12100.5259,E,000.0,000.0,241013,,,A*64
$GPRMC,075617.000,A,2447.1023,N,12100.5259,E,000.0,000.0,241013,,,A*65
$GPRMC,075618.000,A,2447.1023,N,12100.5259,E,000.0,000.0,241013,,,A*6a
$GPRMC,075619.000,A,2447.1023,N,12100.5259,E,000.0,000.0,241013,,,A*6b
$GPRMC,075620.000,A,2447.1023,N,12100.5259,E,000.0,000.0,241013,,,A*61
$GPRMC,075621.000,A,2447.1023,N,12100.5259,E,000.0,000.0,241013,,,A*60
$GPRMC,075622.000,A,2447.1023,N,12100.5259,E,000.0,000.0,241013,,,A*63
$GPRMC,075623.000,A,2447.1023,N,12100.5259,E,000.0,000.0,241013,,,A*62
$GPRMC,075624.000,A,2447.1023,N,12100.5259,E,000.0,000.0,241013,,,A*65
$GPRMC,075625.000,A,2447.1023,N,12100.5259,E,000.0,000.0,241013,,,A*64
$GPRMC,075626.000,A,2447.1023,N,12100.5259,E,000.0,000.0,241013,,,A*67
$GPRMC,075627.000,A,2447.1023,N,12100.5259,E,000.0,000.0,241013,,,A*66
$GPRMC,075628.000,A,2447.1023,N,12100.5259,E,000.0,000.0,241013,,,A*69
$GPRMC,075629.000,A,2447.1023,N,12100.5259,E,000.0,000.0,241013,,,A*68
$GPRMC,075630.000,A,2447.1023,N,12100.5259,E,000.0,000.0,241013,,,A*60
$GPRMC,075631.000,A,2447.1023,N,12100.5259,E,000.0,000.0,241013,,,A*61
$GPRMC,075632.000,A,2447.1023,N,12100.5259,E,000.0,000.0,241013,,,A*62
$GPRMC,075633.000,A,2447.1023,N,12100.5259,E,000.0,000.0,241013,,,A*63
$GPRMC,075634.000,A,2447.1023,N,12100.5259,E,000.0,000.0,241013,,,A*64
$GPRMC,075635.000,A,2447.1023,N,12100.5259,E,000.0,000.0,241013,,,A*65
$GPRMC,075636.000,A,2447.1023,N,12100.5259,E,000.0,000.0,241013,,,A*66
$GPRMC,075637.000,A,2447.1023,N,12100.5259,E,000.0,000.0,241013,,,A*67
$GPRMC,075638.000,A,2447.1023,N,12100.5259,E,000.0,000.0,241013,,,A*68
$GPRMC,075639.000,A,2447.1023,N,12100.5259,E,000.0,000.0,241013,,,A*69
$GPRMC,075640.000,A,2447.1023,N,12100.5259,E,000.0,000.0,241013,,,A*67
$GPRMC,075641.000,A,2447.1023,N,12100.5259,E,000.0,000.0,241013,,,A*66
$GPRMC,075642.000,A,2447.1023,N,12100.5259,E,000.0,000.0,241013,,,A*65
$GPRMC,075643.000,A,2447.1023,N,12100.5259,E,000.0,000.0,241013,,,A*64
$GPRMC,075644.000,A,2447.1023,N,12100.5259,E,000.0,000.0,241013,,,A*63
$GPRMC,075645.000,A,2447.1023,N,12100.5259,E,000.0,000.0,241013,,,A*62
$GPRMC,075646.000,A,2447.1023,N,12100.5259,E,000.0,000.0,241013,,,A*61
$GPRMC,075647.000,A,2447.1023,N,12100.5259,E,000.0,000.0,241013,,,A*60
$GPRMC,075648.000,A,2447.1023,N,12100.5259,E,000.0,000.0,241013,,,A*6f
$GPRMC,075649.000,A,2447.1023,N,12100.5259,E,000.0,000.0,241013,,,A*6e
$GPRMC,075650.000,A,2447.1023,N,12100.5259,E,000.0,000.0,241013,,,A*66
$GPRMC,075651.000,A,2447.1023,N,12100.5259,E,000.0,000.0,241013,,,A*67
$GPRMC,075652.000,A,2447.1023,N,12100.5259,E,000.0,000.0,241013,,,A*64
$GPRMC,075653.000,A,2447.1023,N,12100.5259,E,000.0,000.0,241013,,,A*65
$GPRMC,075654.000,A,2447.1023,N,12100.5259,E,000.0,000.0,241013,,,A*62
$GPRMC,075655.000,A,2447.1023,N,12100.5259,E,000.0,000.0,241013,,,A*63
$GPRMC,075656.000,A,2447.1023,N,12100.5259,E,000.0,000.0,241013,,,A*60
$GPRMC,075657.000,A,2447.1023,N,12100.5259,E,000.0,000.0,241013,,,A*61
$GPRMC,075658.000,A,2447.1023,N,12100.5259,E,000.0,000.0,241013,,,A*6e
$GPRMC,075659.000,A,2447.1023,N,12100.5259,E,000.0,000.0,241013,,,A*6f
$GPRMC,075700.000,A,2447.1023,N,12100.5259,E,000.0,000.0,241013,,,A*62
$GPRMC,075701.000,A,2447.1023,N,12100.5259,E,000.0,000.0,241013,,,A*63
$GPRMC,075702.000,A,2447.1023,N,12100.5259,E,000.0,000.0,241013,,,A*60
$GPRMC,075703.000,A,2447.1023,N,12100.5259,E,000.0,000.0,241013,,,A*61
$GPRMC,075704.000,A,2447.1023,N,12100.5259,E,000.0,000.0,241013,,,A*66
$GPRMC,075705.000,A,2447.1023,N,12100.5259,E,000.0,000.0,241013,,,A*67
$GPRMC,075706.000,A,2447.1023,N,12100.5259,E,000.0,000.0,241013,,,A*64
$GPRMC,075707.000,A,2447.1023,N,12100.5259,E,000.0,000.0,241013,,,A*65
$GPRMC,075708.000,A,2447.1023,N,12100.5259,E,000.0,000.0,241013,,,A*6a
$GPRMC,075709.000,A,2447.1023,N,12100.5259,E,000.0,000.0,241013,,,A*6b
$GPRMC,075710.000,A,2447.1023,N,12100.5259,E,000.0,000.0,241013,,,A*63
$GPRMC,075711.000,A,2447.1023,N,12100.5259,E,000.0,000.0,241013,,,A*62
$GPRMC,075712.000,A,2447.1023,N,12100.5259,E,000.0,000.0,241013,,,A*61
$GPRMC,075713.000,A,2447.1023,N,12100.5259,E,000.0,000.0,241013,,,A*60
$GPRMC,075714.000,A,2447.1023,N,12100.5259,E,000.0,000.0,241013,,,A*67
$GPRMC,075715.000,A,2447.1023,N,12100.5259,E,000.0,000.0,241013,,,A*66
$GPRMC,075716.000,A,2447.1023,N,12100.5259,E,000.0,000.0,241013,,,A*65
$GPRMC,075717.000,A,2447.1023,N,12100.5259,E,000.0,000.0,241013,,,A*64
$GPRMC,075718.000,A,2447.1023,N,12100.5259,E,000.0,000.0,241013,,,A*6b
$GPRMC,075719.000,A,2447.1023,N,12100.5259,E,000.0,000.0,241013,,,A*6a
$GPRMC,075720.000,A,2447.1023,N,12100.5259,E,000.0,000.0,241013,,,A*60
$GPRMC,075721.000,A,2447.1023,N,12100.5259,E,000.0,000.0,241013,,,A*61
$GPRMC,075722.000,A,2447.1023,N,12100.5259,E,000.0,000.0,241013,,,A*62
$GPRMC,075723.000,A,2447.1023,N,12100.5259,E,000.0,000.0,241013,,,A*63
$GPRMC,075724.000,A,2447.1023,N,12100.5259,E,000.0,000.0,241013,,,A*64
$GPRMC,075725.000,A,2447.1023,N,12100.5259,E,000.0,000.0,241013,,,A*65
$GPRMC,075726.000,A,2447.1023,N,12100.5259,E,000.0,000.0,241013,,,A*66
$GPRMC,075727.000,A,2447.1023,N,12100.5259,E,000.0,000.0,241013,,,A*67
$GPRMC,075728.000,A,2447.1023,N,12100.5259,E,000.0,000.0,241013,,,A*68
$GPRMC,075729.000,A,2447.1023,N,12100.5259,E,000.0,000.0,241013,,,A*69
$GPRMC,075730.000,A,2447.1023,N,12100.5259,E,000.0,000.0,241013,,,A*61
$GPRMC,075731.000,A,2447.1023,N,12100.5259,E,000.0,000.0,241013,,,A*60
$GPRMC,075732.000,A,2447.1023,N,12100.5259,E,000.0,000.0,241013,,,A*63
$GPRMC,075733.000,A,2447.1023,N,12100.5259,E,000.0,000.0,241013,,,A*62
$GPRMC,075734.000,A,2447.1023,N,12100.5259,E,000.0,000.0,241013,,,A*65
$GPRMC,075735.000,A,2447.1023,N,12100.5259,E,000.0,000.0,241013,,,A*64
$GPRMC,075736.000,A,2447.1023,N,12100.5259,E,000.0,000.0,241013,,,A*67
$GPRMC,075737.000,A,2447.1023,N,12100.5259,E,000.0,000.0,241013,,,A*66
$GPRMC,075738.000,A,2447.1023,N,12100.5259,E,000.0,000.0,241013,,,A*69
$GPRMC,075739.000,A,2447.1023,N,12100.5259,E,000.0,000.0,241013,,,A*68
$GPRMC,075740.000,A,2447.1023,N,12100.5259,E,000.0,000.0,241013,,,A*66
$GPRMC,075741.000,A,2447.1023,N,12100.5259,E,000.0,000.0,241013,,,A*67
$GPRMC,075742.000,A,2447.1023,N,12100.5259,E,000.0,000.0,241013,,,A*64
$GPRMC,075743.000,A,2447.1023,N,12100.5259,E,000.0,000.0,241013,,,A*65
$GPRMC,075744.000,A,2447.1023,N,12100.5259,E,000.0,000.0,241013,,,A*62
$GPRMC,075745.000,A,2447.1023,N,12100.5259,E,000.0,000.0,241013,,,A*63
$GPRMC,075746.000,A,2447.1023,N,12100.5259,E,000.0,000.0,241013,,,A*60
$GPRMC,075747.000,A,2447.1023,N,12100.5259,E,000.0,000.0,241013,,,A*61
$GPRMC,075748.000,A,2447.1023,N,12100.5259,E,000.0,000.0,241013,,,A*6e
$GPRMC,075749.000,A,2447.1023,N,12100.5259,E,000.0,000.0,241013,,,A*6f
$GPRMC,075750.000,A,2447.1023,N,12100.5259,E,000.0,000.0,241013,,,A*67
$GPRMC,075751.000,A,2447.1023,N,12100.5259,E,000.0,000.0,241013,,,A*66
$GPRMC,075752.000,A,2447.1023,N,12100.5259,E,000.0,000.0,241013,,,A*65
$GPRMC,075753.000,A,2447.1023,N,12100.5259,E,000.0,000.0,241013,,,A*64
$GPRMC,075754.000,A,2447.1023,N,12100.5259,E,000.0,000.0,241013,,,A*63
$GPRMC,075755.000,A,2447.1023,N,12100.5259,E,000.0,000.0,241013,,,A*62
$GPRMC,075756.000,A,2447.1023,N,12100.5259,E,000.0,000.0,241013,,,A*61
$GPRMC,075757.000,A,2447.1023,N,12100.5259,E,000.0,000.0,241013,,,A*60
$GPRMC,075758.000,A,2447.1023,N,12100.5259,E,000.0,000.0,241013,,,A*6f
$GPRMC,075759.000,A,2447.1023,N,12100.5259,E,000.0,000.0,241013,,,A*6e
$GPRMC,075800.000,A,2447.1023,N,12100.5259,E,000.0,000.0,241013,,,A*6d
$GPRMC,075801.000,A,2447.1023,N,12100.5259,E,000.0,000.0,241013,,,A*6c
$GPRMC,075802.000,A,2447.1023,N,12100.5259,E,000.0,000.0,241013,,,A*6f
$GPRMC,075803.000,A,2447.1023,N,12100.5259,E,000.0,000.0,241013,,,A*6e
$GPRMC,075804.000,A,2447.1023,N,12100.5259,E,000.0,000.0,241013,,,A*69
$GPRMC,075805.000,A,2447.1023,N,12100.5259,E,000.0,000.0,241013,,,A*68
$GPRMC,075806.000,A,2447.1023,N,12100.5259,E,000.0,000.0,241013,,,A*6b
$GPRMC,075807.000,A,2447.1023,N,12100.5259,E,000.0,000.0,241013,,,A*6a
$GPRMC,075808.000,A,2447.1023,N,12100.5259,E,000.0,000.0,241013,,,A*65
$GPRMC,075809.000,A,2447.1023,N,12100.5259,E,000.0,000.0,241013,,,A*64
$GPRMC,075810.000,A,2447.1023,N,12100.5259,E,000.0,000.0,241013,,,A*6c
$GPRMC,075811.000,A,2447.1023,N,12100.5259,E,000.0,000.0,241013,,,A*6d
$GPRMC,075812.000,A,2447.1023,N,12100.5259,E,000.0,000.0,241013,,,A*6e
$GPRMC,075813.000,A,2447.1023,N,12100.5259,E,000.0,000.0,241013,,,A*6f
$GPRMC,075814.000,A,2447.1023,N,12100.5259,E,000.0,000.0,241013,,,A*68
$GPRMC,075815.000,A,2447.1023,N,12100.5259,E,000.0,000.0,241013,,,A*69
$GPRMC,075816.000,A,2447.1023,N,12100.5259,E,000.0,000.0,241013,,,A*6a
$GPRMC,075817.000,A,2447.1023,N,12100.5259,E,000.0,000.0,241013,,,A*6b
$GPRMC,075818.000,A,2447.1023,N,12100.5259,E,000.0,000.0,241013,,,A*64
$GPRMC,075819.000,A,2447.1023,N,12100.5259,E,000.0,000.0,241013,,,A*65
$GPRMC,075820.000,A,2447.1023,N,12100.5259,E,000.0,000.0,241013,,,A*6f
$GPRMC,075821.000,A,2447.0986,N,12100.5247,E,000.5,000.0,241013,,,A*63
$GPRMC,075822.000,A,2447.0986,N,12100.5247,E,000.0,000.0,241013,,,A*65
$GPRMC,075823.000,A,2447.0986,N,12100.5247,E,000.0,000.0,241013,,,A*64
$GPRMC,075824.000,A,2447.0986,N,12100.5247,E,000.0,000.0,241013,,,A*63
$GPRMC,075825.000,A,2447.0986,N,12100.5247,E,000.0,000.0,241013,,,A*62
$GPRMC,075826.000,A,2447.0986,N,12100.5247,E,000.0,000.0,241013,,,A*61
$GPRMC,075827.000,A,2447.0986,N,12100.5247,E,000.0,000.0,241013,,,A*60
$GPRMC,075828.000,A,2447.0983,N,12100.5250,E,000.5,000.0,241013,,,A*69
$GPRMC,075829.000,A,2447.0983,N,12100.5250,E,000.0,000.0,241013,,,A*6d
$GPRMC,075830.000,A,2447.0983,N,12100.5250,E,000.0,000.0,241013,,,A*65
$GPRMC,075831.000,A,2447.0983,N,12100.5250,E,000.0,000.0,241013,,,A*64
$GPRMC,075832.000,A,2447.0983,N,12100.5250,E,000.0,000.0,241013,,,A*67
$GPRMC,075833.000,A,2447.0983,N,12100.5250,E,000.0,000.0,241013,,,A*66
$GPRMC,075834.000,A,2447.0983,N,12100.5250,E,000.0,000.0,241013,,,A*61
$GPRMC,075835.000,A,2447.0983,N,12100.5250,E,000.0,000.0,241013,,,A*60
$GPRMC,075836.000,A,2447.0990,N,12100.5252,E,000.0,000.0,241013,,,A*63
$GPRMC,075837.000,A,2447.0990,N,12100.5252,E,000.0,000.0,241013,,,A*62
$GPRMC,075838.000,A,2447.0990,N,12100.5252,E,000.0,000.0,241013,,,A*6d
$GPRMC,075839.000,A,2447.0990,N,12100.5252,E,000.0,000.0,241013,,,A*6c
$GPRMC,075840.000,A,2447.0990,N,12100.5252,E,000.0,000.0,241013,,,A*62
$GPRMC,075841.000,A,2447.0990,N,12100.5252,E,000.0,000.0,241013,,,A*63
$GPRMC,075842.000,A,2447.0990,N,12100.5252,E,000.0,000.0,241013,,,A*60
$GPRMC,075843.000,A,2447.0990,N,12100.5252,E,000.0,000.0,241013,,,A*61
$GPRMC,075844.000,A,2447.0990,N,12100.5252,E,000.0,000.0,241013,,,A*66
$GPRMC,075845.000,A,2447.0990,N,12100.5252,E,000.0,000.0,241013,,,A*67
$GPRMC,075846.000,A,2447.0990,N,12100.5252,E,000.0,000.0,241013,,,A*64
$GPRMC,075847.000,A,2447.0990,N,12100.5252,E,000.0,000.0,241013,,,A*65
$GPRMC,075848.000,A,2447.0990,N,12100.5252,E,000.0,000.0,241013,,,A*6a
$GPRMC,075849.000,A,2447.0990,N,12100.5252,E,000.0,000.0,241013,,,A*6b
$GPRMC,075850.000,A,2447.0990,N,12100.5252,E,000.0,000.0,241013,,,A*63
$GPRMC,075851.000,A,2447.0990,N,12100.5252,E,000.0,000.0,241013,,,A*62
$GPRMC,075852.000,A,2447.0990,N,12100.5252,E,000.0,000.0,241013,,,A*61
$GPRMC,075853.000,A,2447.0990,N,12100.5252,E,000.0,000.0,241013,,,A*60
$GPRMC,075854.000,A,2447.0990,N,12100.5252,E,000.0,000.0,241013,,,A*67
$GPRMC,075855.000,A,2447.0990,N,12100.5252,E,000.0,000.0,241013,,,A*66
$GPRMC,075856.000,A,2447.0990,N,12100.5252,E,000.0,000.0,241013,,,A*65
$GPRMC,075857.000,A,2447.0989,N,12100.5218,E,000.0,000.0,241013,,,A*62
$GPRMC,075858.000,A,2447.0989,N,12100.5218,E,000.0,000.0,241013,,,A*6d
$GPRMC,075859.000,A,2447.0989,N,12100.5218,E,000.0,000.0,241013,,,A*6c
$GPRMC,075900.000,A,2447.0989,N,12100.5218,E,000.0,000.0,241013,,,A*61
$GPRMC,075901.000,A,2447.0989,N,12100.5218,E,000.0,000.0,241013,,,A*60
$GPRMC,075902.000,A,2447.0989,N,12100.5218,E,000.0,000.0,241013,,,A*63
$GPRMC,075903.000,A,2447.0989,N,12100.5218,E,000.0,000.0,241013,,,A*62
$GPRMC,075904.000,A,2447.0989,N,12100.5218,E,000.0,000.0,241013,,,A*65
$GPRMC,075905.000,A,2447.0989,N,12100.5218,E,000.0,000.0,241013,,,A*64
$GPRMC,075906.000,A,2447.0989,N,12100.5218,E,000.0,000.0,241013,,,A*67
$GPRMC,075907.000,A,2447.0989,N,12100.5218,E,000.0,000.0,241013,,,A*66
$GPRMC,075908.000,A,2447.0989,N,12100.5218,E,000.0,000.0,241013,,,A*69
$GPRMC,075909.000,A,2447.0989,N,12100.5218,E,000.0,000.0,241013,,,A*68
$GPRMC,075910.000,A,2447.0989,N,12100.5218,E,000.0,000.0,241013,,,A*60
$GPRMC,075911.000,A,2447.0989,N,12100.5218,E,000.0,000.0,241013,,,A*61
$GPRMC,075912.000,A,2447.0989,N,12100.5218,E,000.0,000.0,241013,,,A*62
$GPRMC,075913.000,A,2447.0989,N,12100.5218,E,000.0,000.0,241013,,,A*63
$GPRMC,075914.000,A,2447.0989,N,12100.5218,E,000.0,000.0,241013,,,A*64
$GPRMC,075915.000,A,2447.0989,N,12100.5218,E,000.0,000.0,241013,,,A*65
$GPRMC,075916.000,A,2447.0989,N,12100.5218,E,000.0,000.0,241013,,,A*66
$GPRMC,075917.000,A,2447.0989,N,12100.5218,E,000.0,000.0,241013,,,A*67
$GPRMC,075918.000,A,2447.0989,N,12100.5218,E,000.0,000.0,241013,,,A*68
$GPRMC,075919.000,A,2447.0989,N,12100.5218,E,000.0,000.0,241013,,,A*69
$GPRMC,075920.000,A,2447.0989,N,12100.5218,E,000.0,000.0,241013,,,A*63
$GPRMC,075921.000,A,2447.0989,N,12100.5218,E,000.0,000.0,241013,,,A*62
$GPRMC,075922.000,A,2447.0989,N,12100.5218,E,000.0,000.0,241013,,,A*61
$GPRMC,075923.000,A,2447.0989,N,12100.5218,E,000.0,000.0,241013,,,A*60
$GPRMC,075924.000,A,2447.0989,N,12100.5218,E,000.0,000.0,241013,,,A*67
$GPRMC,075925.000,A,2447.0989,N,12100.5218,E,000.0,000.0,241013,,,A*66
$GPRMC,075926.000,A,2447.0989,N,12100.5218,E,000.0,000.0,241013,,,A*65
$GPRMC,075927.000,A,2447.0989,N,12100.5218,E,000.0,000.0,241013,,,A*64
$GPRMC,075928.000,A,2447.0989,N,12100.5218,E,000.0,000.0,241013,,,A*6b
$GPRMC,075929.000,A,2447.0989,N,12100.5218,E,000.0,000.0,241013,,,A*6a
$GPRMC,075930.000,A,2447.0989,N,12100.5218,E,000.0,000.0,241013,,,A*62
$GPRMC,075931.000,A,2447.0989,N,12100.5218,E,000.0,000.0,241013,,,A*63
$GPRMC,075932.000,A,2447.0989,N,12100.5218,E,000.0,000.0,241013,,,A*60
$GPRMC,075933.000,A,2447.0989,N,12100.5218,E,000.0,000.0,241013,,,A*61
$GPRMC,075934.000,A,2447.0989,N,12100.5218,E,000.0,000.0,241013,,,A*66
$GPRMC,075935.000,A,2447.0989,N,12100.5218,E,000.0,000.0,241013,,,A*67
$GPRMC,075936.000,A,2447.0989,N,12100.5218,E,000.0,000.0,241013,,,A*64
$GPRMC,075937.000,A,2447.0989,N,12100.5218,E,000.0,000.0,241013,,,A*65
$GPRMC,075938.000,A,2447.0989,N,12100.5218,E,000.0,000.0,241013,,,A*6a
$GPRMC,075939.000,A,2447.0989,N,12100.5218,E,000.0,000.0,241013,,,A*6b
$GPRMC,075940.000,A,2447.0989,N,12100.5218,E,000.0,000.0,241013,,,A*65
$GPRMC,075941.000,A,2447.0989,N,12100.5218,E,000.0,000.0,241013,,,A*64
$GPRMC,075942.000,A,2447.0989,N,12100.5218,E,000.0,000.0,241013,,,A*67
$GPRMC,075943.000,A,2447.0989,N,12100.5218,E,000.0,000.0,241013,,,A*66
$GPRMC,075944.000,A,2447.0989,N,12100.5218,E,000.0,000.0,241013,,,A*61
$GPRMC,075945.000,A,2447.0989,N,12100.5218,E,000.0,000.0,241013,,,A*60
$GPRMC,075946.000,A,2447.0989,N,12100.5218,E,000.0,000.0,241013,,,A*63
$GPRMC,075947.000,A,2447.0989,N,12100.5218,E,000.0,000.0,241013,,,A*62
$GPRMC,075948.000,A,2447.0989,N,12100.5218,E,000.0,000.0,241013,,,A*6d
$GPRMC,075949.000,A,2447.0989,N,12100.5218,E,000.0,000.0,241013,,,A*6c
$GPRMC,075950.000,A,2447.0989,N,12100.5218,E,000.0,000.0,241013,,,A*64
$GPRMC,075951.000,A,2447.0989,N,12100.5218,E,000.0,000.0,241013,,,A*65
$GPRMC,075952.000,A,2447.0989,N,12100.5218,E,000.0,000.0,241013,,,A*66
$GPRMC,075953.000,A,2447.0989,N,12100.5218,E,000.0,000.0,241013,,,A*67
$GPRMC,075954.000,A,2447.1004,N,12100.5121,E,000.5,000.0,241013,,,A*61
$GPRMC,075955.000,A,2447.1007,N,12100.5124,E,000.5,000.0,241013,,,A*66
$GPRMC,075956.000,A,2447.1007,N,12100.5124,E,000.0,000.0,241013,,,A*60
$GPRMC,075957.000,A,2447.1009,N,12100.5114,E,001.6,000.0,241013,,,A*6b
$GPRMC,075958.000,A,2447.1012,N,12100.5111,E,001.0,000.0,241013,,,A*6d
$GPRMC,075959.000,A,2447.1022,N,12100.5113,E,001.6,000.0,241013,,,A*6b
$GPRMC,080000.000,A,2447.1023,N,12100.5108,E,001.6,000.0,241013,,,A*6f
$GPRMC,080001.000,A,2447.1022,N,12100.5099,E,001.0,000.0,241013,,,A*60
$GPRMC,080002.000,A,2447.1024,N,12100.5102,E,000.0,000.0,241013,,,A*67
$GPRMC,080003.000,A,2447.1024,N,12100.5102,E,000.0,000.0,241013,,,A*66
$GPRMC,080004.000,A,2447.1024,N,12100.5102,E,000.0,000.0,241013,,,A*61
$GPRMC,080005.000,A,2447.1024,N,12100.5102,E,000.5,000.0,241013,,,A*65
$GPRMC,080006.000,A,2447.1025,N,12100.5098,E,000.5,000.0,241013,,,A*65
$GPRMC,080007.000,A,2447.1024,N,12100.5102,E,000.0,000.0,241013,,,A*62
$GPRMC,080008.000,A,2447.1028,N,12100.5108,E,000.0,000.0,241013,,,A*6b
$GPRMC,080009.000,A,2447.1027,N,12100.5113,E,000.0,000.0,241013,,,A*6f
$GPRMC,080010.000,A,2447.1029,N,12100.5116,E,000.0,000.0,241013,,,A*6c
$GPRMC,080011.000,A,2447.1029,N,12100.5116,E,000.0,000.0,241013,,,A*6d
$GPRMC,080012.000,A,2447.1027,N,12100.5113,E,000.0,000.0,241013,,,A*65
$GPRMC,080013.000,A,2447.1027,N,12100.5113,E,000.0,000.0,241013,,,A*64
$GPRMC,080014.000,A,2447.1027,N,12100.5113,E,000.0,000.0,241013,,,A*63
$GPRMC,080015.000,A,2447.1027,N,12100.5113,E,000.0,000.0,241013,,,A*62
$GPRMC,080016.000,A,2447.1027,N,12100.5113,E,000.0,000.0,241013,,,A*61
$GPRMC,080017.000,A,2447.1027,N,12100.5113,E,000.0,000.0,241013,,,A*60
$GPRMC,080018.000,A,2447.1027,N,12100.5113,E,000.0,000.0,241013,,,A*6f
$GPRMC,080019.000,A,2447.1027,N,12100.5113,E,000.0,000.0,241013,,,A*6e
$GPRMC,080020.000,A,2447.1027,N,12100.5113,E,000.0,000.0,241013,,,A*64
$GPRMC,080021.000,A,2447.1027,N,12100.5113,E,000.0,000.0,241013,,,A*65
$GPRMC,080022.000,A,2447.1027,N,12100.5113,E,000.0,000.0,241013,,,A*66
$GPRMC,080023.000,A,2447.1027,N,12100.5113,E,000.0,000.0,241013,,,A*67
$GPRMC,080024.000,A,2447.1027,N,12100.5113,E,000.0,000.0,241013,,,A*60
$GPRMC,080025.000,A,2447.1027,N,12100.5113,E,000.0,000.0,241013,,,A*61
$GPRMC,080026.000,A,2447.1027,N,12100.5113,E,000.0,000.0,241013,,,A*62
$GPRMC,080027.000,A,2447.1027,N,12100.5113,E,000.0,000.0,241013,,,A*63
$GPRMC,080028.000,A,2447.1027,N,12100.5113,E,000.0,000.0,241013,,,A*6c
$GPRMC,080029.000,A,2447.1027,N,12100.5113,E,000.0,000.0,241013,,,A*6d
$GPRMC,080030.000,A,2447.1027,N,12100.5113,E,000.0,000.0,241013,,,A*65
$GPRMC,080031.000,A,2447.1027,N,12100.5113,E,000.0,000.0,241013,,,A*64
$GPRMC,080032.000,A,2447.1027,N,12100.5113,E,000.0,000.0,241013,,,A*67
$GPRMC,080033.000,A,2447.1032,N,12100.5131,E,000.0,000.0,241013,,,A*62
$GPRMC,080034.000,A,2447.1032,N,12100.5131,E,000.0,000.0,241013,,,A*65
$GPRMC,080035.000,A,2447.1032,N,12100.5131,E,000.0,000.0,241013,,,A*64
$GPRMC,080036.000,A,2447.1032,N,12100.5131,E,000.0,000.0,241013,,,A*67
$GPRMC,080037.000,A,2447.1032,N,12100.5131,E,000.0,000.0,241013,,,A*66
$GPRMC,080038.000,A,2447.1032,N,12100.5131,E,000.0,000.0,241013,,,A*69
$GPRMC,080039.000,A,2447.1032,N,12100.5131,E,000.0,000.0,241013,,,A*68
$GPRMC,080040.000,A,2447.1032,N,12100.5131,E,000.0,000.0,241013,,,A*66
$GPRMC,080041.000,A,2447.1032,N,12100.5131,E,000.0,000.0,241013,,,A*67
$GPRMC,080042.000,A,2447.1032,N,12100.5131,E,000.0,000.0,241013,,,A*64
$GPRMC,080043.000,A,2447.1032,N,12100.5131,E,000.0,000.0,241013,,,A*65
$GPRMC,080044.000,A,2447.1032,N,12100.5131,E,000.0,000.0,241013,,,A*62
$GPRMC,080045.000,A,2447.1032,N,12100.5131,E,000.0,000.0,241013,,,A*63
$GPRMC,080046.000,A,2447.1032,N,12100.5131,E,000.0,000.0,241013,,,A*60
$GPRMC,080047.000,A,2447.1032,N,12100.5131,E,000.0,000.0,241013,,,A*61
$GPRMC,080048.000,A,2447.1032,N,12100.5131,E,000.0,000.0,241013,,,A*6e
$GPRMC,080049.000,A,2447.1032,N,12100.5131,E,000.0,000.0,241013,,,A*6f
$GPRMC,080050.000,A,2447.1032,N,12100.5131,E,000.0,000.0,241013,,,A*67
$GPRMC,080051.000,A,2447.1032,N,12100.5131,E,000.0,000.0,241013,,,A*66
$GPRMC,080052.000,A,2447.1032,N,12100.5131,E,000.0,000.0,241013,,,A*65
$GPRMC,080053.000,A,2447.1032,N,12100.5131,E,000.0,000.0,241013,,,A*64
$GPRMC,080054.000,A,2447.1032,N,12100.5131,E,000.0,000.0,241013,,,A*63
$GPRMC,080055.000,A,2447.1032,N,12100.5131,E,000.0,000.0,241013,,,A*62
$GPRMC,080056.000,A,2447.1032,N,12100.5131,E,000.0,000.0,241013,,,A*61
$GPRMC,080057.000,A,2447.1032,N,12100.5131,E,000.0,000.0,241013,,,A*60
$GPRMC,080058.000,A,2447.1032,N,12100.5131,E,000.0,000.0,241013,,,A*6f
$GPRMC,080059.000,A,2447.1032,N,12100.5131,E,000.0,000.0,241013,,,A*6e
$GPRMC,080100.000,A,2447.1032,N,12100.5131,E,000.0,000.0,241013,,,A*63
$GPRMC,080101.000,A,2447.1032,N,12100.5131,E,000.0,000.0,241013,,,A*62
$GPRMC,080102.000,A,2447.1032,N,12100.5131,E,000.0,000.0,241013,,,A*61
$GPRMC,080103.000,A,2447.1032,N,12100.5131,E,000.0,000.0,241013,,,A*60
$GPRMC,080104.000,A,2447.1032,N,12100.5131,E,000.0,000.0,241013,,,A*67
$GPRMC,080105.000,A,2447.1032,N,12100.5131,E,000.0,000.0,241013,,,A*66
$GPRMC,080106.000,A,2447.1032,N,12100.5131,E,000.0,000.0,241013,,,A*65
$GPRMC,080107.000,A,2447.1032,N,12100.5131,E,000.0,000.0,241013,,,A*64
$GPRMC,080108.000,A,2447.1032,N,12100.5131,E,000.0,000.0,241013,,,A*6b
$GPRMC,080109.000,A,2447.1032,N,12100.5131,E,000.0,000.0,241013,,,A*6a
$GPRMC,080110.000,A,2447.1032,N,12100.5131,E,000.0,000.0,241013,,,A*62
$GPRMC,080111.000,A,2447.1032,N,12100.5131,E,000.0,000.0,241013,,,A*63
$GPRMC,080112.000,A,2447.1032,N,12100.5131,E,000.0,000.0,241013,,,A*60
$GPRMC,080113.000,A,2447.1032,N,12100.5131,E,000.0,000.0,241013,,,A*61
$GPRMC,080114.000,A,2447.1032,N,12100.5131,E,000.0,000.0,241013,,,A*66
$GPRMC,080115.000,A,2447.1032,N,12100.5131,E,000.0,000.0,241013,,,A*67
$GPRMC,080116.000,A,2447.1032,N,12100.5131,E,000.0,000.0,241013,,,A*64
$GPRMC,080117.000,A,2447.1032,N,12100.5131,E,000.0,000.0,241013,,,A*65
$GPRMC,080118.000,A,2447.1032,N,12100.5131,E,000.0,000.0,241013,,,A*6a
$GPRMC,080119.000,A,2447.1032,N,12100.5131,E,000.0,000.0,241013,,,A*6b
$GPRMC,080120.000,A,2447.1032,N,12100.5131,E,000.0,000.0,241013,,,A*61
$GPRMC,080121.000,A,2447.1032,N,12100.5131,E,000.0,000.0,241013,,,A*60
$GPRMC,080122.000,A,2447.1032,N,12100.5131,E,000.0,000.0,241013,,,A*63
$GPRMC,080123.000,A,2447.1032,N,12100.5131,E,000.0,000.0,241013,,,A*62
$GPRMC,080124.000,A,2447.1032,N,12100.5131,E,000.0,000.0,241013,,,A*65
$GPRMC,080125.000,A,2447.1032,N,12100.5131,E,000.0,000.0,241013,,,A*64
$GPRMC,080126.000,A,2447.1032,N,12100.5131,E,000.0,000.0,241013,,,A*67
$GPRMC,080127.000,A,2447.1032,N,12100.5131,E,000.0,000.0,241013,,,A*66
$GPRMC,080128.000,A,2447.1032,N,12100.5131,E,000.0,000.0,241013,,,A*69
$GPRMC,080129.000,A,2447.1032,N,12100.5131,E,000.0,000.0,241013,,,A*68
$GPRMC,080130.000,A,2447.1032,N,12100.5131,E,000.0,000.0,241013,,,A*60
$GPRMC,080131.000,A,2447.1032,N,12100.5131,E,000.0,000.0,241013,,,A*61
$GPRMC,080132.000,A,2447.1032,N,12100.5131,E,000.0,000.0,241013,,,A*62
$GPRMC,080133.000,A,2447.1032,N,12100.5131,E,000.0,000.0,241013,,,A*63
$GPRMC,080134.000,A,2447.1032,N,12100.5131,E,000.0,000.0,241013,,,A*64
$GPRMC,080135.000,A,2447.1032,N,12100.5131,E,000.0,000.0,241013,,,A*65
$GPRMC,080136.000,A,2447.1032,N,12100.5131,E,000.0,000.0,241013,,,A*66
$GPRMC,080137.000,A,2447.1032,N,12100.5131,E,000.0,000.0,241013,,,A*67
$GPRMC,080138.000,A,2447.1032,N,12100.5131,E,000.0,000.0,241013,,,A*68
$GPRMC,080139.000,A,2447.1032,N,12100.5131,E,000.0,000.0,241013,,,A*69
$GPRMC,080140.000,A,2447.1032,N,12100.5131,E,000.0,000.0,241013,,,A*67
$GPRMC,080141.000,A,2447.1032,N,12100.5131,E,000.0,000.0,241013,,,A*66
$GPRMC,080142.000,A,2447.1032,N,12100.5131,E,000.0,000.0,241013,,,A*65
$GPRMC,080143.000,A,2447.1032,N,12100.5131,E,000.0,000.0,241013,,,A*64
$GPRMC,080144.000,A,2447.1032,N,12100.5131,E,000.0,000.0,241013,,,A*63
$GPRMC,080145.000,A,2447.1032,N,12100.5131,E,000.0,000.0,241013,,,A*62
$GPRMC,080146.000,A,2447.1032,N,12100.5131,E,000.0,000.0,241013,,,A*61
$GPRMC,080147.000,A,2447.1032,N,12100.5131,E,000.0,000.0,241013,,,A*60
$GPRMC,080148.000,A,2447.1032,N,12100.5131,E,000.0,000.0,241013,,,A*6f
$GPRMC,080149.000,A,2447.1032,N,12100.5131,E,000.0,000.0,241013,,,A*6e
$GPRMC,080150.000,A,2447.1032,N,12100.5131,E,000.0,000.0,241013,,,A*66
$GPRMC,080151.000,A,2447.1032,N,12100.5131,E,000.0,000.0,241013,,,A*67
$GPRMC,080152.000,A,2447.1032,N,12100.5131,E,000.0,000.0,241013,,,A*64
$GPRMC,080153.000,A,2447.1032,N,12100.5131,E,000.0,000.0,241013,,,A*65
$GPRMC,080154.000,A,2447.1032,N,12100.5131,E,000.0,000.0,241013,,,A*62
$GPRMC,080155.000,A,2447.1032,N,12100.5131,E,000.0,000.0,241013,,,A*63
$GPRMC,080156.000,A,2447.1032,N,12100.5131,E,000.0,000.0,241013,,,A*60
$GPRMC,080157.000,A,2447.1032,N,12100.5131,E,000.0,000.0,241013,,,A*61
$GPRMC,080158.000,A,2447.1032,N,12100.5131,E,000.0,000.0,241013,,,A*6e
$GPRMC,080159.000,A,2447.1032,N,12100.5131,E,000.0,000.0,241013,,,A*6f
$GPRMC,080200.000,A,2447.1032,N,12100.5131,E,000.0,000.0,241013,,,A*60
$GPRMC,080207.000,A,2447.1156,N,12100.5110,E,002.1,000.0,241013,,,A*64
$GPRMC,080208.000,A,2447.1137,N,12100.5131,E,000.0,000.0,241013,,,A*6c
$GPRMC,080209.000,A,2447.1119,N,12100.5155,E,000.0,000.0,241013,,,A*63
$GPRMC,080210.000,A,2447.1103,N,12100.5172,E,000.5,000.0,241013,,,A*60
$GPRMC,080211.000,A,2447.1095,N,12100.5181,E,000.0,000.0,241013,,,A*66
$GPRMC,080212.000,A,2447.1082,N,12100.5195,E,000.0,000.0,241013,,,A*66
$GPRMC,080213.000,A,2447.1073,N,12100.5209,E,000.0,000.0,241013,,,A*6f
$GPRMC,080214.000,A,2447.1060,N,12100.5224,E,000.0,000.0,241013,,,A*65
$GPRMC,080215.000,A,2447.1050,N,12100.5230,E,000.0,000.0,241013,,,A*62
$GPRMC,080216.000,A,2447.1040,N,12100.5260,E,000.0,000.0,241013,,,A*65
$GPRMC,080217.000,A,2447.1032,N,12100.5267,E,000.0,000.0,241013,,,A*66
$GPRMC,080218.000,A,2447.1032,N,12100.5267,E,000.0,000.0,241013,,,A*69
$GPRMC,080219.000,A,2447.1032,N,12100.5267,E,000.0,000.0,241013,,,A*68
$GPRMC,080220.000,A,2447.1032,N,12100.5267,E,000.0,000.0,241013,,,A*62
$GPRMC,080221.000,A,2447.1032,N,12100.5267,E,000.0,000.0,241013,,,A*63
$GPRMC,080222.000,A,2447.1032,N,12100.5267,E,000.0,000.0,241013,,,A*60
$GPRMC,080223.000,A,2447.1032,N,12100.5267,E,000.0,000.0,241013,,,A*61
$GPRMC,080224.000,A,2447.1032,N,12100.5267,E,000.0,000.0,241013,,,A*66
$GPRMC,080225.000,A,2447.1032,N,12100.5267,E,000.0,000.0,241013,,,A*67
$GPRMC,080226.000,A,2447.1032,N,12100.5267,E,000.0,000.0,241013,,,A*64
$GPRMC,080227.000,A,2447.1032,N,12100.5267,E,000.0,000.0,241013,,,A*65
$GPRMC,080228.000,A,2447.1032,N,12100.5267,E,000.0,000.0,241013,,,A*6a
$GPRMC,080229.000,A,2447.1032,N,12100.5267,E,000.0,000.0,241013,,,A*6b
$GPRMC,080230.000,A,2447.1032,N,12100.5267,E,000.0,000.0,241013,,,A*63
$GPRMC,080231.000,A,2447.1032,N,12100.5267,E,000.0,000.0,241013,,,A*62
$GPRMC,080232.000,A,2447.1032,N,12100.5267,E,000.0,000.0,241013,,,A*61
$GPRMC,080233.000,A,2447.1002,N,12100.5300,E,000.0,000.0,241013,,,A*63
$GPRMC,080234.000,A,2447.1002,N,12100.5300,E,000.0,000.0,241013,,,A*64
$GPRMC,080235.000,A,2447.1002,N,12100.5300,E,000.0,000.0,241013,,,A*65
$GPRMC,080236.000,A,2447.1002,N,12100.5300,E,000.0,000.0,241013,,,A*66
$GPRMC,080237.000,A,2447.1002,N,12100.5300,E,000.0,000.0,241013,,,A*67
$GPRMC,080238.000,A,2447.1002,N,12100.5300,E,000.0,000.0,241013,,,A*68
$GPRMC,080239.000,A,2447.1002,N,12100.5300,E,000.0,000.0,241013,,,A*69
$GPRMC,080240.000,A,2447.1002,N,12100.5300,E,000.0,000.0,241013,,,A*67
$GPRMC,080241.000,A,2447.1002,N,12100.5300,E,000.0,000.0,241013,,,A*66
$GPRMC,080242.000,A,2447.1002,N,12100.5300,E,000.0,000.0,241013,,,A*65
$GPRMC,080243.000,A,2447.1002,N,12100.5300,E,000.0,000.0,241013,,,A*64
$GPRMC,080244.000,A,2447.1002,N,12100.5300,E,000.0,000.0,241013,,,A*63
$GPRMC,080245.000,A,2447.1002,N,12100.5300,E,000.0,000.0,241013,,,A*62
$GPRMC,080246.000,A,2447.1002,N,12100.5300,E,000.0,000.0,241013,,,A*61
$GPRMC,080247.000,A,2447.1002,N,12100.5300,E,000.0,000.0,241013,,,A*60
$GPRMC,080248.000,A,2447.1002,N,12100.5300,E,000.0,000.0,241013,,,A*6f
$GPRMC,080249.000,A,2447.1002,N,12100.5300,E,000.0,000.0,241013,,,A*6e
$GPRMC,080250.000,A,2447.1002,N,12100.5300,E,000.0,000.0,241013,,,A*66
$GPRMC,080251.000,A,2447.1002,N,12100.5300,E,000.0,000.0,241013,,,A*67
$GPRMC,080252.000,A,2447.1002,N,12100.5300,E,000.0,000.0,241013,,,A*64
$GPRMC,080253.000,A,2447.1002,N,12100.5300,E,000.0,000.0,241013,,,A*65
$GPRMC,080254.000,A,2447.1002,N,12100.5300,E,000.0,000.0,241013,,,A*62
$GPRMC,080255.000,A,2447.1002,N,12100.5300,E,000.0,000.0,241013,,,A*63
$GPRMC,080256.000,A,2447.1002,N,12100.5300,E,000.0,000.0,241013,,,A*60
$GPRMC,080257.000,A,2447.1002,N,12100.5300,E,000.0,000.0,241013,,,A*61
$GPRMC,080258.000,A,2447.1002,N,12100.5300,E,000.0,000.0,241013,,,A*6e
$GPRMC,080259.000,A,2447.1002,N,12100.5300,E,000.0,000.0,241013,,,A*6f
$GPRMC,080300.000,A,2447.1002,N,12100.5300,E,000.0,000.0,241013,,,A*62
$GPRMC,080301.000,A,2447.1002,N,12100.5300,E,000.0,000.0,241013,,,A*63
$GPRMC,080302.000,A,2447.1002,N,12100.5300,E,000.0,000.0,241013,,,A*60
$GPRMC,080303.000,A,2447.1002,N,12100.5300,E,000.0,000.0,241013,,,A*61
$GPRMC,080304.000,A,2447.1002,N,12100.5300,E,000.0,000.0,241013,,,A*66
$GPRMC,080305.000,A,2447.1002,N,12100.5300,E,000.0,000.0,241013,,,A*67
$GPRMC,080306.000,A,2447.1002,N,12100.5300,E,000.0,000.0,241013,,,A*64
$GPRMC,080307.000,A,2447.1002,N,12100.5300,E,000.0,000.0,241013,,,A*65
$GPRMC,080308.000,A,2447.1002,N,12100.5300,E,000.0,000.0,241013,,,A*6a
$GPRMC,080309.000,A,2447.1002,N,12100.5300,E,000.0,000.0,241013,,,A*6b
$GPRMC,080310.000,A,2447.1002,N,12100.5300,E,000.0,000.0,241013,,,A*63
$GPRMC,080311.000,A,2447.1002,N,12100.5300,E,000.0,000.0,241013,,,A*62
$GPRMC,080312.000,A,2447.1002,N,12100.5300,E,000.0,000.0,241013,,,A*61
$GPRMC,080313.000,A,2447.1002,N,12100.5300,E,000.0,000.0,241013,,,A*60
$GPRMC,080314.000,A,2447.1002,N,12100.5300,E,000.0,000.0,241013,,,A*67
$GPRMC,080315.000,A,2447.1002,N,12100.5300,E,000.0,000.0,241013,,,A*66
$GPRMC,080316.000,A,2447.1002,N,12100.5300,E,000.0,000.0,241013,,,A*65
$GPRMC,080317.000,A,2447.1002,N,12100.5300,E,000.0,000.0,241013,,,A*64
$GPRMC,080318.000,A,2447.1002,N,12100.5300,E,000.0,000.0,241013,,,A*6b
$GPRMC,080319.000,A,2447.1002,N,12100.5300,E,000.0,000.0,241013,,,A*6a
$GPRMC,080320.000,A,2447.1002,N,12100.5300,E,000.0,000.0,241013,,,A*60
$GPRMC,080321.000,A,2447.1002,N,12100.5300,E,000.0,000.0,241013,,,A*61
$GPRMC,080322.000,A,2447.1002,N,12100.5300,E,000.0,000.0,241013,,,A*62
$GPRMC,080323.000,A,2447.1002,N,12100.5300,E,000.0,000.0,241013,,,A*63
$GPRMC,080324.000,A,2447.1002,N,12100.5300,E,000.0,000.0,241013,,,A*64
$GPRMC,080325.000,A,2447.1002,N,12100.5300,E,000.0,000.0,241013,,,A*65
$GPRMC,080326.000,A,2447.1002,N,12100.5300,E,000.0,000.0,241013,,,A*66
$GPRMC,080327.000,A,2447.1002,N,12100.5300,E,000.0,000.0,241013,,,A*67
$GPRMC,080328.000,A,2447.1002,N,12100.5300,E,000.0,000.0,241013,,,A*68
$GPRMC,080329.000,A,2447.1002,N,12100.5300,E,000.0,000.0,241013,,,A*69
$GPRMC,080330.000,A,2447.1002,N,12100.5300,E,000.0,000.0,241013,,,A*61
$GPRMC,080331.000,A,2447.1002,N,12100.5300,E,000.0,000.0,241013,,,A*60
$GPRMC,080332.000,A,2447.1002,N,12100.5300,E,000.0,000.0,241013,,,A*63
$GPRMC,080333.000,A,2447.1002,N,12100.5300,E,000.0,000.0,241013,,,A*62
$GPRMC,080334.000,A,2447.1002,N,12100.5300,E,000.0,000.0,241013,,,A*65
$GPRMC,080335.000,A,2447.1002,N,12100.5300,E,000.0,000.0,241013,,,A*64
$GPRMC,080336.000,A,2447.1002,N,12100.5300,E,000.0,000.0,241013,,,A*67
$GPRMC,080337.000,A,2447.1002,N,12100.5300,E,000.0,000.0,241013,,,A*66
$GPRMC,080338.000,A,2447.1002,N,12100.5300,E,000.0,000.0,241013,,,A*69
$GPRMC,080339.000,A,2447.1002,N,12100.5300,E,000.0,000.0,241013,,,A*68
$GPRMC,080340.000,A,2447.1002,N,12100.5300,E,000.0,000.0,241013,,,A*66
$GPRMC,080341.000,A,2447.1002,N,12100.5300,E,000.0,000.0,241013,,,A*67
$GPRMC,080342.000,A,2447.1002,N,12100.5300,E,000.0,000.0,241013,,,A*64
$GPRMC,080343.000,A,2447.1002,N,12100.5300,E,000.0,000.0,241013,,,A*65
$GPRMC,080344.000,A,2447.1002,N,12100.5300,E,000.0,000.0,241013,,,A*62
$GPRMC,080345.000,A,2447.1002,N,12100.5300,E,000.0,000.0,241013,,,A*63
$GPRMC,080346.000,A,2447.1002,N,12100.5300,E,000.0,000.0,241013,,,A*60
$GPRMC,080347.000,A,2447.1002,N,12100.5300,E,000.0,000.0,241013,,,A*61
$GPRMC,080348.000,A,2447.1002,N,12100.5300,E,000.0,000.0,241013,,,A*6e
$GPRMC,080349.000,A,2447.1002,N,12100.5300,E,000.0,000.0,241013,,,A*6f
$GPRMC,080350.000,A,2447.1002,N,12100.5300,E,000.0,000.0,241013,,,A*67
$GPRMC,080351.000,A,2447.1002,N,12100.5300,E,000.0,000.0,241013,,,A*66
$GPRMC,080352.000,A,2447.1002,N,12100.5300,E,000.0,000.0,241013,,,A*65
$GPRMC,080353.000,A,2447.1002,N,12100.5300,E,000.0,000.0,241013,,,A*64
$GPRMC,080354.000,A,2447.1002,N,12100.5300,E,000.0,000.0,241013,,,A*63
$GPRMC,080355.000,A,2447.1002,N,12100.5300,E,000.0,000.0,241013,,,A*62
$GPRMC,080356.000,A,2447.1002,N,12100.5300,E,000.0,000.0,241013,,,A*61
$GPRMC,080357.000,A,2447.1002,N,12100.5300,E,000.0,000.0,241013,,,A*60
$GPRMC,080358.000,A,2447.1002,N,12100.5300,E,000.0,000.0,241013,,,A*6f
$GPRMC,080359.000,A,2447.1002,N,12100.5300,E,000.0,000.0,241013,,,A*6e
$GPRMC,080400.000,A,2447.1002,N,12100.5300,E,000.0,000.0,241013,,,A*65
$GPRMC,080401.000,A,2447.1002,N,12100.5300,E,000.0,000.0,241013,,,A*64
$GPRMC,080402.000,A,2447.1002,N,12100.5300,E,000.0,000.0,241013,,,A*67
$GPRMC,080403.000,A,2447.1002,N,12100.5300,E,000.0,000.0,241013,,,A*66
$GPRMC,080404.000,A,2447.1002,N,12100.5300,E,000.0,000.0,241013,,,A*61
$GPRMC,080405.000,A,2447.1002,N,12100.5300,E,000.0,000.0,241013,,,A*60
$GPRMC,080406.000,A,2447.1002,N,12100.5300,E,000.0,000.0,241013,,,A*63
$GPRMC,080407.000,A,2447.1002,N,12100.5300,E,000.0,000.0,241013,,,A*62
$GPRMC,080408.000,A,2447.1002,N,12100.5300,E,000.0,000.0,241013,,,A*6d
$GPRMC,080409.000,A,2447.1002,N,12100.5300,E,000.0,000.0,241013,,,A*6c
$GPRMC,080410.000,A,2447.1002,N,12100.5300,E,000.0,000.0,241013,,,A*64
$GPRMC,080411.000,A,2447.1002,N,12100.5300,E,000.0,000.0,241013,,,A*65
$GPRMC,080412.000,A,2447.1002,N,12100.5300,E,000.0,000.0,241013,,,A*66
$GPRMC,080413.000,A,2447.1002,N,12100.5300,E,000.0,000.0,241013,,,A*67
$GPRMC,080414.000,A,2447.1002,N,12100.5300,E,000.0,000.0,241013,,,A*60
$GPRMC,080415.000,A,2447.1002,N,12100.5300,E,000.0,000.0,241013,,,A*61
$GPRMC,080416.000,A,2447.1002,N,12100.5300,E,000.0,000.0,241013,,,A*62
$GPRMC,080417.000,A,2447.1002,N,12100.5300,E,000.0,000.0,241013,,,A*63
$GPRMC,080418.000,A,2447.1002,N,12100.5300,E,000.0,000.0,241013,,,A*6c
$GPRMC,080419.000,A,2447.1002,N,12100.5300,E,000.0,000.0,241013,,,A*6d
$GPRMC,080420.000,A,2447.1002,N,12100.5300,E,000.0,000.0,241013,,,A*67
$GPRMC,080421.000,A,2447.1002,N,12100.5300,E,000.0,000.0,241013,,,A*66
$GPRMC,080422.000,A,2447.1002,N,12100.5300,E,000.0,000.0,241013,,,A*65
$GPRMC,080423.000,A,2447.1002,N,12100.5300,E,000.0,000.0,241013,,,A*64
$GPRMC,080424.000,A,2447.1002,N,12100.5300,E,000.0,000.0,241013,,,A*63
$GPRMC,080425.000,A,2447.1002,N,12100.5300,E,000.0,000.0,241013,,,A*62
$GPRMC,080426.000,A,2447.1002,N,12100.5300,E,000.0,000.0,241013,,,A*61
$GPRMC,080427.000,A,2447.1002,N,12100.5300,E,000.0,000.0,241013,,,A*60
$GPRMC,080428.000,A,2447.1002,N,12100.5300,E,000.0,000.0,241013,,,A*6f
$GPRMC,080429.000,A,2447.1002,N,12100.5300,E,000.0,000.0,241013,,,A*6e
$GPRMC,080430.000,A,2447.1002,N,12100.5300,E,000.0,000.0,241013,,,A*66
$GPRMC,080431.000,A,2447.1002,N,12100.5300,E,000.0,000.0,241013,,,A*67
$GPRMC,080432.000,A,2447.1002,N,12100.5300,E,000.0,000.0,241013,,,A*64
$GPRMC,080433.000,A,2447.1002,N,12100.5300,E,000.0,000.0,241013,,,A*65
$GPRMC,080434.000,A,2447.1002,N,12100.5300,E,000.0,000.0,241013,,,A*62
$GPRMC,080435.000,A,2447.1002,N,12100.5300,E,000.0,000.0,241013,,,A*63
$GPRMC,080436.000,A,2447.1002,N,12100.5300,E,000.0,000.0,241013,,,A*60
$GPRMC,080437.000,A,2447.1002,N,12100.5300,E,000.0,000.0,241013,,,A*61
$GPRMC,080438.000,A,2447.1002,N,12100.5300,E,000.0,000.0,241013,,,A*6e
$GPRMC,080439.000,A,2447.1002,N,12100.5300,E,000.0,000.0,241013,,,A*6f
$GPRMC,080440.000,A,2447.1002,N,12100.5300,E,000.0,000.0,241013,,,A*61
$GPRMC,080441.000,A,2447.1002,N,12100.5300,E,000.0,000.0,241013,,,A*60
$GPRMC,080442.000,A,2447.1002,N,12100.5300,E,000.0,000.0,241013,,,A*63
$GPRMC,080443.000,A,2447.1002,N,12100.5300,E,000.0,000.0,241013,,,A*62
$GPRMC,080444.000,A,2447.1002,N,12100.5300,E,000.0,000.0,241013,,,A*65
$GPRMC,080445.000,A,2447.1002,N,12100.5300,E,000.0,000.0,241013,,,A*64
$GPRMC,080446.000,A,2447.1002,N,12100.5300,E,000.0,000.0,241013,,,A*67
$GPRMC,080447.000,A,2447.1002,N,12100.5300,E,000.0,000.0,241013,,,A*66
$GPRMC,080448.000,A,2447.1002,N,12100.5300,E,000.0,000.0,241013,,,A*69
$GPRMC,080449.000,A,2447.1002,N,12100.5300,E,000.0,000.0,241013,,,A*68
$GPRMC,080450.000,A,2447.0984,N,12100.5281,E,000.0,000.0,241013,,,A*6e
$GPRMC,080451.000,A,2447.0984,N,12100.5281,E,000.0,000.0,241013,,,A*6f
