$GPRMC,065142.000,A,2447.0899,N,12100.5266,E,755.9,000.0,270516,,,A*6b
$GPRMC,065143.000,A,2447.0899,N,12100.5266,E,172.7,000.0,270516,,,A*67
$GPRMC,065144.000,A,2447.0899,N,12100.5266,E,172.7,000.0,270516,,,A*60
$GPRMC,065145.000,A,2447.0899,N,12100.5266,E,172.7,000.0,270516,,,A*61
$GPRMC,065146.000,A,2447.0899,N,12100.5266,E,172.7,000.0,270516,,,A*62
$GPRMC,065147.000,A,2447.0899,N,12100.5266,E,172.7,000.0,270516,,,A*63
$GPRMC,065148.000,A,2447.0899,N,12100.5266,E,172.7,000.0,270516,,,A*6c
$GPRMC,065149.000,A,2447.0900,N,12100.5262,E,173.3,000.0,270516,,,A*6d
$GPRMC,065150.000,A,2447.0900,N,12100.5262,E,172.7,000.0,270516,,,A*60
$GPRMC,065151.000,A,2447.0900,N,12100.5262,E,172.7,000.0,270516,,,A*61
$GPRMC,065152.000,A,2447.0900,N,12100.5262,E,172.7,000.0,270516,,,A*62
$GPRMC,065153.000,A,2447.0900,N,12100.5262,E,172.7,000.0,270516,,,A*63
$GPRMC,065154.000,A,2447.0900,N,12100.5262,E,172.7,000.0,270516,,,A*64
$GPRMC,065155.000,A,2447.0900,N,12100.5262,E,172.7,000.0,270516,,,A*65
$GPRMC,065156.000,A,2447.0900,N,12100.5262,E,172.7,000.0,270516,,,A*66
$GPRMC,065157.000,A,2447.0900,N,12100.5262,E,172.7,000.0,270516,,,A*67
$GPRMC,065158.000,A,2447.0900,N,12100.5262,E,172.7,000.0,270516,,,A*68
$GPRMC,065159.000,A,2447.0900,N,12100.5262,E,172.7,000.0,270516,,,A*69
$GPRMC,065200.000,A,2447.0900,N,12100.5262,E,172.7,000.0,270516,,,A*66
$GPRMC,065201.000,A,2447.0900,N,12100.5262,E,172.7,000.0,270516,,,A*67
$GPRMC,065202.000,A,2447.0900,N,12100.5262,E,172.7,000.0,270516,,,A*64
$GPRMC,065203.000,A,2447.0900,N,12100.5262,E,172.7,000.0,270516,,,A*65
$GPRMC,065204.000,A,2447.0900,N,12100.5262,E,172.7,000.0,270516,,,A*62
$GPRMC,065205.000,A,2447.0900,N,12100.5262,E,172.7,000.0,270516,,,A*63
$GPRMC,065206.000,A,2447.0900,N,12100.5262,E,172.7,000.0,270516,,,A*60
$GPRMC,065207.000,A,2447.0900,N,12100.5262,E,172.7,000.0,270516,,,A*61
$GPRMC,065208.000,A,2447.0900,N,12100.5262,E,172.7,000.0,270516,,,A*6e
$GPRMC,065209.000,A,2447.0900,N,12100.5262,E,172.7,000.0,270516,,,A*6f
$GPRMC,065210.000,A,2447.0900,N,12100.5262,E,172.7,000.0,270516,,,A*67
$GPRMC,065211.000,A,2447.0900,N,12100.5262,E,172.7,000.0,270516,,,A*66
$GPRMC,065212.000,A,2447.0900,N,12100.5262,E,172.7,000.0,270516,,,A*65
$GPRMC,065213.000,A,2447.0896,N,12100.5264,E,173.8,000.0,270516,,,A*62
$GPRMC,065214.000,A,2447.0894,N,12100.5269,E,173.8,000.0,270516,,,A*6a
$GPRMC,065215.000,A,2447.0890,N,12100.5269,E,172.7,000.0,270516,,,A*61
$GPRMC,065216.000,A,2447.0888,N,12100.5274,E,173.3,000.0,270516,,,A*62
$GPRMC,065217.000,A,2447.0890,N,12100.5269,E,172.7,000.0,270516,,,A*63
$GPRMC,065218.000,A,2447.0890,N,12100.5269,E,172.7,000.0,270516,,,A*6c
$GPRMC,065219.000,A,2447.0890,N,12100.5269,E,172.7,000.0,270516,,,A*6d
$GPRMC,065220.000,A,2447.0890,N,12100.5269,E,172.7,000.0,270516,,,A*67
$GPRMC,065221.000,A,2447.0890,N,12100.5269,E,172.7,000.0,270516,,,A*66
$GPRMC,065222.000,A,2447.0890,N,12100.5269,E,172.7,000.0,270516,,,A*65
$GPRMC,065223.000,A,2447.0890,N,12100.5269,E,173.8,000.0,270516,,,A*6a
$GPRMC,065224.000,A,2447.0889,N,12100.5261,E,173.8,000.0,270516,,,A*6d
$GPRMC,065225.000,A,2447.0889,N,12100.5261,E,172.7,000.0,270516,,,A*62
$GPRMC,065226.000,A,2447.0890,N,12100.5256,E,172.7,000.0,270516,,,A*6d
$GPRMC,065227.000,A,2447.0890,N,12100.5256,E,172.7,000.0,270516,,,A*6c
$GPRMC,065228.000,A,2447.0890,N,12100.5256,E,173.8,000.0,270516,,,A*6d
$GPRMC,065229.000,A,2447.0890,N,12100.5256,E,172.7,000.0,270516,,,A*62
$GPRMC,065230.000,A,2447.0890,N,12100.5256,E,173.8,000.0,270516,,,A*64
$GPRMC,065231.000,A,2447.0890,N,12100.5256,E,173.3,000.0,270516,,,A*6e
$GPRMC,065232.000,A,2447.0897,N,12100.5203,E,173.8,000.0,270516,,,A*61
$GPRMC,065233.000,A,2447.0896,N,12100.5195,E,173.8,000.0,270516,,,A*6d
$GPRMC,065234.000,A,2447.0891,N,12100.5139,E,176.0,000.0,270516,,,A*66
$GPRMC,065235.000,A,2447.0883,N,12100.5128,E,176.0,000.0,270516,,,A*64
$GPRMC,065236.000,A,2447.0883,N,12100.5114,E,174.9,000.0,270516,,,A*63
$GPRMC,065237.000,A,2447.0883,N,12100.5114,E,174.9,000.0,270516,,,A*62
$GPRMC,065238.000,A,2447.0882,N,12100.5120,E,176.0,000.0,270516,,,A*60
$GPRMC,065239.000,A,2447.0883,N,12100.5114,E,174.4,000.0,270516,,,A*61
$GPRMC,065240.000,A,2447.0887,N,12100.5107,E,174.4,000.0,270516,,,A*69
$GPRMC,065241.000,A,2447.0893,N,12100.5101,E,172.7,000.0,270516,,,A*6e
$GPRMC,065242.000,A,2447.0893,N,12100.5101,E,172.7,000.0,270516,,,A*6d
$GPRMC,065243.000,A,2447.0887,N,12100.5107,E,172.7,000.0,270516,,,A*6f
$GPRMC,065244.000,A,2447.0887,N,12100.5107,E,172.7,000.0,270516,,,A*68
$GPRMC,065245.000,A,2447.0887,N,12100.5107,E,172.7,000.0,270516,,,A*69
$GPRMC,065246.000,A,2447.0887,N,12100.5107,E,173.3,000.0,270516,,,A*6f
$GPRMC,065247.000,A,2447.0887,N,12100.5107,E,173.3,000.0,270516,,,A*6e
$GPRMC,065248.000,A,2447.0887,N,12100.5107,E,173.3,000.0,270516,,,A*61
$GPRMC,065249.000,A,2447.0887,N,12100.5107,E,173.3,000.0,270516,,,A*60
$GPRMC,065250.000,A,2447.0882,N,12100.5107,E,173.3,000.0,270516,,,A*6d
$GPRMC,065251.000,A,2447.0882,N,12100.5107,E,172.7,000.0,270516,,,A*69
$GPRMC,065252.000,A,2447.0881,N,12100.5104,E,173.3,000.0,270516,,,A*6f
$GPRMC,065253.000,A,2447.0882,N,12100.5098,E,172.7,000.0,270516,,,A*6c
$GPRMC,065254.000,A,2447.0882,N,12100.5098,E,173.3,000.0,270516,,,A*6e
$GPRMC,065255.000,A,2447.0882,N,12100.5098,E,172.7,000.0,270516,,,A*6a
$GPRMC,065256.000,A,2447.0882,N,12100.5098,E,172.7,000.0,270516,,,A*69
$GPRMC,065257.000,A,2447.0882,N,12100.5098,E,172.7,000.0,270516,,,A*68
$GPRMC,065258.000,A,2447.0882,N,12100.5098,E,172.7,000.0,270516,,,A*67
$GPRMC,065259.000,A,2447.0882,N,12100.5098,E,172.7,000.0,270516,,,A*66
$GPRMC,065300.000,A,2447.0882,N,12100.5098,E,172.7,000.0,270516,,,A*6b
$GPRMC,065301.000,A,2447.0882,N,12100.5098,E,172.7,000.0,270516,,,A*6a
$GPRMC,065302.000,A,2447.0882,N,12100.5098,E,172.7,000.0,270516,,,A*69
$GPRMC,065303.000,A,2447.0882,N,12100.5098,E,172.7,000.0,270516,,,A*68
$GPRMC,065304.000,A,2447.0882,N,12100.5098,E,172.7,000.0,270516,,,A*6f
$GPRMC,065305.000,A,2447.0882,N,12100.5098,E,172.7,000.0,270516,,,A*6e
$GPRMC,065306.000,A,2447.0882,N,12100.5098,E,172.7,000.0,270516,,,A*6d
$GPRMC,065307.000,A,2447.0882,N,12100.5098,E,172.7,000.0,270516,,,A*6c
$GPRMC,065308.000,A,2447.0882,N,12100.5098,E,172.7,000.0,270516,,,A*63
$GPRMC,065309.000,A,2447.0882,N,12100.5098,E,172.7,000.0,270516,,,A*62
$GPRMC,065310.000,A,2447.0882,N,12100.5098,E,172.7,000.0,270516,,,A*6a
$GPRMC,065311.000,A,2447.0882,N,12100.5098,E,172.7,000.0,270516,,,A*6b
$GPRMC,065312.000,A,2447.0882,N,12100.5098,E,172.7,000.0,270516,,,A*68
$GPRMC,065313.000,A,2447.0882,N,12100.5098,E,172.7,000.0,270516,,,A*69
$GPRMC,065314.000,A,2447.0882,N,12100.5098,E,172.7,000.0,270516,,,A*6e
$GPRMC,065315.000,A,2447.0882,N,12100.5098,E,172.7,000.0,270516,,,A*6f
$GPRMC,065316.000,A,2447.0882,N,12100.5098,E,172.7,000.0,270516,,,A*6c
$GPRMC,065317.000,A,2447.0882,N,12100.5098,E,172.7,000.0,270516,,,A*6d
$GPRMC,065318.000,A,2447.0882,N,12100.5098,E,172.7,000.0,270516,,,A*62
$GPRMC,065319.000,A,2447.0882,N,12100.5098,E,172.7,000.0,270516,,,A*63
$GPRMC,065320.000,A,2447.0882,N,12100.5098,E,172.7,000.0,270516,,,A*69
$GPRMC,065321.000,A,2447.0882,N,12100.5098,E,172.7,000.0,270516,,,A*68
$GPRMC,065322.000,A,2447.0882,N,12100.5098,E,172.7,000.0,270516,,,A*6b
$GPRMC,065323.000,A,2447.0882,N,12100.5098,E,172.7,000.0,270516,,,A*6a
$GPRMC,065324.000,A,2447.0882,N,12100.5098,E,172.7,000.0,270516,,,A*6d
$GPRMC,065325.000,A,2447.0882,N,12100.5098,E,172.7,000.0,270516,,,A*6c
$GPRMC,065326.000,A,2447.0882,N,12100.5098,E,172.7,000.0,270516,,,A*6f
$GPRMC,065327.000,A,2447.0882,N,12100.5098,E,172.7,000.0,270516,,,A*6e
$GPRMC,065328.000,A,2447.0882,N,12100.5098,E,172.7,000.0,270516,,,A*61
$GPRMC,065329.000,A,2447.0882,N,12100.5098,E,172.7,000.0,270516,,,A*60
$GPRMC,065330.000,A,2447.0882,N,12100.5098,E,172.7,000.0,270516,,,A*68
$GPRMC,065331.000,A,2447.0882,N,12100.5098,E,172.7,000.0,270516,,,A*69
$GPRMC,065332.000,A,2447.0882,N,12100.5098,E,172.7,000.0,270516,,,A*6a
$GPRMC,065333.000,A,2447.0882,N,12100.5098,E,172.7,000.0,270516,,,A*6b
$GPRMC,065334.000,A,2447.0882,N,12100.5098,E,172.7,000.0,270516,,,A*6c
$GPRMC,065335.000,A,2447.0882,N,12100.5098,E,172.7,000.0,270516,,,A*6d
$GPRMC,065336.000,A,2447.0882,N,12100.5098,E,172.7,000.0,270516,,,A*6e
$GPRMC,065337.000,A,2447.0882,N,12100.5098,E,172.7,000.0,270516,,,A*6f
$GPRMC,065338.000,A,2447.0882,N,12100.5098,E,172.7,000.0,270516,,,A*60
$GPRMC,065339.000,A,2447.0882,N,12100.5098,E,172.7,000.0,270516,,,A*61
$GPRMC,065340.000,A,2447.0882,N,12100.5098,E,172.7,000.0,270516,,,A*6f
$GPRMC,065341.000,A,2447.0882,N,12100.5098,E,172.7,000.0,270516,,,A*6e
$GPRMC,065342.000,A,2447.0882,N,12100.5098,E,172.7,000.0,270516,,,A*6d
$GPRMC,065343.000,A,2447.0882,N,12100.5098,E,172.7,000.0,270516,,,A*6c
$GPRMC,065344.000,A,2447.0882,N,12100.5098,E,172.7,000.0,270516,,,A*6b
$GPRMC,065345.000,A,2447.0882,N,12100.5098,E,172.7,000.0,270516,,,A*6a
$GPRMC,065346.000,A,2447.0882,N,12100.5098,E,172.7,000.0,270516,,,A*69
$GPRMC,065347.000,A,2447.0882,N,12100.5098,E,172.7,000.0,270516,,,A*68
$GPRMC,065348.000,A,2447.0882,N,12100.5098,E,172.7,000.0,270516,,,A*67
$GPRMC,065349.000,A,2447.0882,N,12100.5098,E,172.7,000.0,270516,,,A*66
$GPRMC,065350.000,A,2447.0882,N,12100.5098,E,172.7,000.0,270516,,,A*6e
$GPRMC,065351.000,A,2447.0882,N,12100.5098,E,172.7,000.0,270516,,,A*6f
$GPRMC,065352.000,A,2447.0882,N,12100.5098,E,172.7,000.0,270516,,,A*6c
$GPRMC,065353.000,A,2447.0882,N,12100.5098,E,172.7,000.0,270516,,,A*6d
$GPRMC,065354.000,A,2447.0882,N,12100.5098,E,172.7,000.0,270516,,,A*6a
$GPRMC,065355.000,A,2447.0882,N,12100.5098,E,172.7,000.0,270516,,,A*6b
$GPRMC,065356.000,A,2447.0882,N,12100.5098,E,172.7,000.0,270516,,,A*68
$GPRMC,065357.000,A,2447.0882,N,12100.5098,E,172.7,000.0,270516,,,A*69
$GPRMC,065358.000,A,2447.0882,N,12100.5098,E,172.7,000.0,270516,,,A*66
$GPRMC,065359.000,A,2447.0882,N,12100.5098,E,172.7,000.0,270516,,,A*67
$GPRMC,065400.000,A,2447.0882,N,12100.5098,E,172.7,000.0,270516,,,A*6c
$GPRMC,065401.000,A,2447.0882,N,12100.5098,E,172.7,000.0,270516,,,A*6d
$GPRMC,065402.000,A,2447.0882,N,12100.5098,E,172.7,000.0,270516,,,A*6e
$GPRMC,065403.000,A,2447.0882,N,12100.5098,E,172.7,000.0,270516,,,A*6f
$GPRMC,065537.000,A,2447.0995,N,12100.5215,E,000.0,000.0,270516,,,A*6a
$GPRMC,065538.000,A,2447.0977,N,12100.5228,E,172.7,000.0,270516,,,A*64
$GPRMC,065539.000,A,2447.0975,N,12100.5230,E,172.7,000.0,270516,,,A*6e
$GPRMC,065540.000,A,2447.0972,N,12100.5230,E,172.7,000.0,270516,,,A*67
$GPRMC,065541.000,A,2447.0969,N,12100.5225,E,172.7,000.0,270516,,,A*68
$GPRMC,065542.000,A,2447.0968,N,12100.5228,E,172.7,000.0,270516,,,A*67
$GPRMC,065543.000,A,2447.0970,N,12100.5231,E,172.7,000.0,270516,,,A*67
$GPRMC,065544.000,A,2447.0966,N,12100.5224,E,172.7,000.0,270516,,,A*63
$GPRMC,065545.000,A,2447.0966,N,12100.5224,E,172.7,000.0,270516,,,A*62
$GPRMC,065546.000,A,2447.0966,N,12100.5224,E,172.7,000.0,270516,,,A*61
$GPRMC,065547.000,A,2447.0966,N,12100.5224,E,172.7,000.0,270516,,,A*60
$GPRMC,065548.000,A,2447.0966,N,12100.5224,E,172.7,000.0,270516,,,A*6f
$GPRMC,065549.000,A,2447.0966,N,12100.5224,E,172.7,000.0,270516,,,A*6e
$GPRMC,065550.000,A,2447.0966,N,12100.5224,E,172.7,000.0,270516,,,A*66
$GPRMC,065551.000,A,2447.0966,N,12100.5224,E,172.7,000.0,270516,,,A*67
$GPRMC,065552.000,A,2447.0966,N,12100.5224,E,172.7,000.0,270516,,,A*64
$GPRMC,065553.000,A,2447.0966,N,12100.5224,E,172.7,000.0,270516,,,A*65
$GPRMC,065554.000,A,2447.0966,N,12100.5224,E,172.7,000.0,270516,,,A*62
$GPRMC,065555.000,A,2447.0966,N,12100.5224,E,172.7,000.0,270516,,,A*63
$GPRMC,065556.000,A,2447.0966,N,12100.5224,E,172.7,000.0,270516,,,A*60
$GPRMC,065557.000,A,2447.0966,N,12100.5224,E,172.7,000.0,270516,,,A*61
$GPRMC,065558.000,A,2447.0966,N,12100.5224,E,172.7,000.0,270516,,,A*6e
$GPRMC,065559.000,A,2447.0966,N,12100.5224,E,172.7,000.0,270516,,,A*6f
$GPRMC,065600.000,A,2447.0966,N,12100.5224,E,172.7,000.0,270516,,,A*60
$GPRMC,065601.000,A,2447.0966,N,12100.5224,E,172.7,000.0,270516,,,A*61
$GPRMC,065602.000,A,2447.0966,N,12100.5224,E,172.7,000.0,270516,,,A*62
$GPRMC,065603.000,A,2447.0966,N,12100.5224,E,172.7,000.0,270516,,,A*63
$GPRMC,065604.000,A,2447.0966,N,12100.5224,E,172.7,000.0,270516,,,A*64
$GPRMC,065605.000,A,2447.0966,N,12100.5224,E,172.7,000.0,270516,,,A*65
$GPRMC,065606.000,A,2447.0966,N,12100.5224,E,172.7,000.0,270516,,,A*66
$GPRMC,065607.000,A,2447.0966,N,12100.5224,E,172.7,000.0,270516,,,A*67
$GPRMC,065608.000,A,2447.0966,N,12100.5224,E,172.7,000.0,270516,,,A*68
$GPRMC,065609.000,A,2447.0966,N,12100.5224,E,172.7,000.0,270516,,,A*69
$GPRMC,065610.000,A,2447.0966,N,12100.5224,E,172.7,000.0,270516,,,A*61
$GPRMC,065611.000,A,2447.0966,N,12100.5224,E,172.7,000.0,270516,,,A*60
$GPRMC,065612.000,A,2447.0966,N,12100.5224,E,172.7,000.0,270516,,,A*63
$GPRMC,065613.000,A,2447.0966,N,12100.5224,E,172.7,000.0,270516,,,A*62
$GPRMC,065614.000,A,2447.0966,N,12100.5224,E,172.7,000.0,270516,,,A*65
$GPRMC,065615.000,A,2447.0966,N,12100.5224,E,172.7,000.0,270516,,,A*64
$GPRMC,065616.000,A,2447.0966,N,12100.5224,E,172.7,000.0,270516,,,A*67
$GPRMC,065617.000,A,2447.0966,N,12100.5224,E,172.7,000.0,270516,,,A*66
$GPRMC,065618.000,A,2447.0966,N,12100.5224,E,172.7,000.0,270516,,,A*69
$GPRMC,065619.000,A,2447.0966,N,12100.5224,E,172.7,000.0,270516,,,A*68
$GPRMC,065620.000,A,2447.0966,N,12100.5224,E,172.7,000.0,270516,,,A*62
$GPRMC,065621.000,A,2447.0966,N,12100.5224,E,172.7,000.0,270516,,,A*63
$GPRMC,065622.000,A,2447.0966,N,12100.5224,E,172.7,000.0,270516,,,A*60
$GPRMC,065623.000,A,2447.0966,N,12100.5224,E,172.7,000.0,270516,,,A*61
$GPRMC,065624.000,A,2447.0966,N,12100.5224,E,172.7,000.0,270516,,,A*66
$GPRMC,065625.000,A,2447.0966,N,12100.5224,E,172.7,000.0,270516,,,A*67
$GPRMC,065626.000,A,2447.0966,N,12100.5224,E,172.7,000.0,270516,,,A*64
$GPRMC,065627.000,A,2447.0966,N,12100.5224,E,172.7,000.0,270516,,,A*65
$GPRMC,065628.000,A,2447.0966,N,12100.5224,E,172.7,000.0,270516,,,A*6a
$GPRMC,065629.000,A,2447.0966,N,12100.5224,E,172.7,000.0,270516,,,A*6b
$GPRMC,065630.000,A,2447.0966,N,12100.5224,E,172.7,000.0,270516,,,A*63
$GPRMC,065631.000,A,2447.0966,N,12100.5224,E,172.7,000.0,270516,,,A*62
$GPRMC,065632.000,A,2447.0966,N,12100.5224,E,172.7,000.0,270516,,,A*61
$GPRMC,065633.000,A,2447.0966,N,12100.5224,E,172.7,000.0,270516,,,A*60
$GPRMC,065634.000,A,2447.0966,N,12100.5224,E,172.7,000.0,270516,,,A*67
$GPRMC,065635.000,A,2447.0966,N,12100.5224,E,172.7,000.0,270516,,,A*66
$GPRMC,065636.000,A,2447.0966,N,12100.5224,E,172.7,000.0,270516,,,A*65
$GPRMC,065637.000,A,2447.0966,N,12100.5224,E,172.7,000.0,270516,,,A*64
$GPRMC,065638.000,A,2447.0966,N,12100.5224,E,172.7,000.0,270516,,,A*6b
$GPRMC,065639.000,A,2447.0966,N,12100.5224,E,172.7,000.0,270516,,,A*6a
$GPRMC,065640.000,A,2447.0966,N,12100.5224,E,172.7,000.0,270516,,,A*64
$GPRMC,065641.000,A,2447.0966,N,12100.5224,E,172.7,000.0,270516,,,A*65
$GPRMC,065642.000,A,2447.0966,N,12100.5224,E,172.7,000.0,270516,,,A*66
$GPRMC,065643.000,A,2447.0966,N,12100.5224,E,172.7,000.0,270516,,,A*67
$GPRMC,065644.000,A,2447.0966,N,12100.5224,E,172.7,000.0,270516,,,A*60
$GPRMC,065645.000,A,2447.0966,N,12100.5224,E,172.7,000.0,270516,,,A*61
$GPRMC,065646.000,A,2447.0966,N,12100.5224,E,172.7,000.0,270516,,,A*62
$GPRMC,065647.000,A,2447.0966,N,12100.5224,E,172.7,000.0,270516,,,A*63
$GPRMC,065648.000,A,2447.0966,N,12100.5224,E,172.7,000.0,270516,,,A*6c
$GPRMC,065649.000,A,2447.0966,N,12100.5224,E,172.7,000.0,270516,,,A*6d
$GPRMC,065650.000,A,2447.0966,N,12100.5224,E,172.7,000.0,270516,,,A*65
$GPRMC,065651.000,A,2447.0966,N,12100.5224,E,172.7,000.0,270516,,,A*64
$GPRMC,065652.000,A,2447.0966,N,12100.5224,E,172.7,000.0,270516,,,A*67
$GPRMC,065653.000,A,2447.0966,N,12100.5224,E,172.7,000.0,270516,,,A*66
$GPRMC,065654.000,A,2447.0966,N,12100.5224,E,172.7,000.0,270516,,,A*61
$GPRMC,065655.000,A,2447.0966,N,12100.5224,E,172.7,000.0,270516,,,A*60
$GPRMC,065656.000,A,2447.0966,N,12100.5224,E,172.7,000.0,270516,,,A*63
$GPRMC,065657.000,A,2447.0966,N,12100.5224,E,172.7,000.0,270516,,,A*62
$GPRMC,065658.000,A,2447.0966,N,12100.5224,E,172.7,000.0,270516,,,A*6d
$GPRMC,065659.000,A,2447.0966,N,12100.5224,E,172.7,000.0,270516,,,A*6c
$GPRMC,065700.000,A,2447.0966,N,12100.5224,E,172.7,000.0,270516,,,A*61
$GPRMC,065701.000,A,2447.0966,N,12100.5224,E,172.7,000.0,270516,,,A*60
$GPRMC,065702.000,A,2447.0966,N,12100.5224,E,172.7,000.0,270516,,,A*63
$GPRMC,065703.000,A,2447.0966,N,12100.5224,E,172.7,000.0,270516,,,A*62
$GPRMC,065704.000,A,2447.0966,N,12100.5224,E,172.7,000.0,270516,,,A*65
$GPRMC,065705.000,A,2447.0966,N,12100.5224,E,172.7,000.0,270516,,,A*64
$GPRMC,065706.000,A,2447.0966,N,12100.5224,E,172.7,000.0,270516,,,A*67
$GPRMC,065707.000,A,2447.0966,N,12100.5224,E,172.7,000.0,270516,,,A*66
$GPRMC,065708.000,A,2447.0966,N,12100.5224,E,172.7,000.0,270516,,,A*69
$GPRMC,065709.000,A,2447.0966,N,12100.5224,E,172.7,000.0,270516,,,A*68
$GPRMC,065710.000,A,2447.0966,N,12100.5224,E,172.7,000.0,270516,,,A*60
$GPRMC,065711.000,A,2447.0966,N,12100.5224,E,172.7,000.0,270516,,,A*61
$GPRMC,065712.000,A,2447.0966,N,12100.5224,E,172.7,000.0,270516,,,A*62
$GPRMC,065713.000,A,2447.0966,N,12100.5224,E,172.7,000.0,270516,,,A*63
$GPRMC,065714.000,A,2447.0966,N,12100.5224,E,172.7,000.0,270516,,,A*64
$GPRMC,065715.000,A,2447.0966,N,12100.5224,E,172.7,000.0,270516,,,A*65
$GPRMC,065716.000,A,2447.0966,N,12100.5224,E,172.7,000.0,270516,,,A*66
$GPRMC,065717.000,A,2447.0966,N,12100.5224,E,172.7,000.0,270516,,,A*67
$GPRMC,065718.000,A,2447.0966,N,12100.5224,E,172.7,000.0,270516,,,A*68
$GPRMC,065719.000,A,2447.0966,N,12100.5224,E,172.7,000.0,270516,,,A*69
$GPRMC,065720.000,A,2447.0966,N,12100.5224,E,172.7,000.0,270516,,,A*63
$GPRMC,065721.000,A,2447.0966,N,12100.5224,E,172.7,000.0,270516,,,A*62
$GPRMC,065722.000,A,2447.0966,N,12100.5224,E,172.7,000.0,270516,,,A*61
$GPRMC,065723.000,A,2447.0966,N,12100.5224,E,172.7,000.0,270516,,,A*60
$GPRMC,065724.000,A,2447.0966,N,12100.5224,E,172.7,000.0,270516,,,A*67
$GPRMC,065725.000,A,2447.0966,N,12100.5224,E,172.7,000.0,270516,,,A*66
$GPRMC,065726.000,A,2447.0966,N,12100.5224,E,172.7,000.0,270516,,,A*65
$GPRMC,065727.000,A,2447.0966,N,12100.5224,E,172.7,000.0,270516,,,A*64
$GPRMC,065728.000,A,2447.0966,N,12100.5224,E,172.7,000.0,270516,,,A*6b
$GPRMC,065729.000,A,2447.0966,N,12100.5224,E,172.7,000.0,270516,,,A*6a
$GPRMC,065730.000,A,2447.0966,N,12100.5224,E,172.7,000.0,270516,,,A*62
$GPRMC,065731.000,A,2447.0966,N,12100.5224,E,172.7,000.0,270516,,,A*63
$GPRMC,065732.000,A,2447.0966,N,12100.5224,E,172.7,000.0,270516,,,A*60
$GPRMC,065733.000,A,2447.0966,N,12100.5224,E,172.7,000.0,270516,,,A*61
$GPRMC,065734.000,A,2447.0966,N,12100.5224,E,172.7,000.0,270516,,,A*66
$GPRMC,065735.000,A,2447.0966,N,12100.5224,E,172.7,000.0,270516,,,A*67
$GPRMC,065736.000,A,2447.0966,N,12100.5224,E,172.7,000.0,270516,,,A*64
$GPRMC,065737.000,A,2447.0966,N,12100.5224,E,172.7,000.0,270516,,,A*65
$GPRMC,065738.000,A,2447.0966,N,12100.5224,E,172.7,000.0,270516,,,A*6a
$GPRMC,065739.000,A,2447.0966,N,12100.5224,E,172.7,000.0,270516,,,A*6b
$GPRMC,065740.000,A,2447.0966,N,12100.5224,E,172.7,000.0,270516,,,A*65
$GPRMC,065741.000,A,2447.0966,N,12100.5224,E,172.7,000.0,270516,,,A*64
$GPRMC,065742.000,A,2447.0966,N,12100.5224,E,172.7,000.0,270516,,,A*67
$GPRMC,065743.000,A,2447.0966,N,12100.5224,E,172.7,000.0,270516,,,A*66
$GPRMC,065744.000,A,2447.0966,N,12100.5224,E,172.7,000.0,270516,,,A*61
$GPRMC,065745.000,A,2447.0966,N,12100.5224,E,172.7,000.0,270516,,,A*60
$GPRMC,065746.000,A,2447.0966,N,12100.5224,E,172.7,000.0,270516,,,A*63
$GPRMC,065747.000,A,2447.0966,N,12100.5224,E,172.7,000.0,270516,,,A*62
$GPRMC,065748.000,A,2447.0966,N,12100.5224,E,172.7,000.0,270516,,,A*6d
$GPRMC,065749.000,A,2447.0966,N,12100.5224,E,172.7,000.0,270516,,,A*6c
$GPRMC,065750.000,A,2447.0966,N,12100.5224,E,172.7,000.0,270516,,,A*64
$GPRMC,065751.000,A,2447.0966,N,12100.5224,E,172.7,000.0,270516,,,A*65
$GPRMC,065752.000,A,2447.0966,N,12100.5224,E,172.7,000.0,270516,,,A*66
$GPRMC,065753.000,A,2447.0966,N,12100.5224,E,172.7,000.0,270516,,,A*67
$GPRMC,065754.000,A,2447.0966,N,12100.5224,E,172.7,000.0,270516,,,A*60
$GPRMC,065755.000,A,2447.0966,N,12100.5224,E,172.7,000.0,270516,,,A*61
$GPRMC,065756.000,A,2447.0966,N,12100.5224,E,172.7,000.0,270516,,,A*62
$GPRMC,065757.000,A,2447.0966,N,12100.5224,E,172.7,000.0,270516,,,A*63
$GPRMC,065758.000,A,2447.0966,N,12100.5224,E,172.7,000.0,270516,,,A*6c
$GPRMC,065759.000,A,2447.0966,N,12100.5224,E,172.7,000.0,270516,,,A*6d
$GPRMC,065800.000,A,2447.0966,N,12100.5224,E,172.7,000.0,270516,,,A*6e
$GPRMC,065801.000,A,2447.0966,N,12100.5224,E,172.7,000.0,270516,,,A*6f
$GPRMC,065802.000,A,2447.0966,N,12100.5224,E,172.7,000.0,270516,,,A*6c
$GPRMC,065803.000,A,2447.0966,N,12100.5224,E,172.7,000.0,270516,,,A*6d
$GPRMC,065804.000,A,2447.0966,N,12100.5224,E,172.7,000.0,270516,,,A*6a
$GPRMC,065805.000,A,2447.0966,N,12100.5224,E,172.7,000.0,270516,,,A*6b
$GPRMC,065806.000,A,2447.0966,N,12100.5224,E,172.7,000.0,270516,,,A*68
$GPRMC,065807.000,A,2447.0954,N,12100.5234,E,173.8,000.0,270516,,,A*67
$GPRMC,065808.000,A,2447.0950,N,12100.5243,E,175.4,000.0,270516,,,A*66
$GPRMC,065809.000,A,2447.0948,N,12100.5248,E,174.4,000.0,270516,,,A*64
$GPRMC,065810.000,A,2447.0952,N,12100.5253,E,172.7,000.0,270516,,,A*68
$GPRMC,065811.000,A,2447.0952,N,12100.5253,E,172.7,000.0,270516,,,A*69
$GPRMC,065812.000,A,2447.0952,N,12100.5253,E,173.3,000.0,270516,,,A*6f
$GPRMC,065813.000,A,2447.0947,N,12100.5253,E,173.3,000.0,270516,,,A*6a
$GPRMC,065814.000,A,2447.0949,N,12100.5256,E,172.7,000.0,270516,,,A*63
$GPRMC,065815.000,A,2447.0952,N,12100.5253,E,172.7,000.0,270516,,,A*6d
$GPRMC,065816.000,A,2447.0949,N,12100.5255,E,172.7,000.0,270516,,,A*62
$GPRMC,065817.000,A,2447.0949,N,12100.5255,E,172.7,000.0,270516,,,A*63
$GPRMC,065818.000,A,2447.0949,N,12100.5255,E,173.3,000.0,270516,,,A*69
$GPRMC,065819.000,A,2447.0949,N,12100.5255,E,173.3,000.0,270516,,,A*68
$GPRMC,065820.000,A,2447.0949,N,12100.5255,E,172.7,000.0,270516,,,A*67
$GPRMC,065821.000,A,2447.0949,N,12100.5255,E,172.7,000.0,270516,,,A*66
$GPRMC,065822.000,A,2447.0949,N,12100.5255,E,172.7,000.0,270516,,,A*65
$GPRMC,065823.000,A,2447.0949,N,12100.5255,E,172.7,000.0,270516,,,A*64
$GPRMC,065824.000,A,2447.0949,N,12100.5255,E,172.7,000.0,270516,,,A*63
$GPRMC,065825.000,A,2447.0949,N,12100.5255,E,172.7,000.0,270516,,,A*62
$GPRMC,065826.000,A,2447.0949,N,12100.5255,E,172.7,000.0,270516,,,A*61
$GPRMC,065827.000,A,2447.0949,N,12100.5255,E,172.7,000.0,270516,,,A*60
$GPRMC,065828.000,A,2447.0949,N,12100.5255,E,172.7,000.0,270516,,,A*6f
$GPRMC,065829.000,A,2447.0949,N,12100.5255,E,172.7,000.0,270516,,,A*6e
$GPRMC,065830.000,A,2447.0949,N,12100.5255,E,172.7,000.0,270516,,,A*66
$GPRMC,065831.000,A,2447.0949,N,12100.5255,E,172.7,000.0,270516,,,A*67
$GPRMC,065832.000,A,2447.0949,N,12100.5255,E,172.7,000.0,270516,,,A*64
$GPRMC,065833.000,A,2447.0949,N,12100.5255,E,172.7,000.0,270516,,,A*65
$GPRMC,065834.000,A,2447.0949,N,12100.5255,E,172.7,000.0,270516,,,A*62
$GPRMC,065835.000,A,2447.0949,N,12100.5255,E,172.7,000.0,270516,,,A*63
$GPRMC,065836.000,A,2447.0949,N,12100.5255,E,172.7,000.0,270516,,,A*60
$GPRMC,065837.000,A,2447.0949,N,12100.5255,E,172.7,000.0,270516,,,A*61
$GPRMC,065838.000,A,2447.0949,N,12100.5255,E,172.7,000.0,270516,,,A*6e
$GPRMC,065839.000,A,2447.0949,N,12100.5255,E,172.7,000.0,270516,,,A*6f
$GPRMC,065840.000,A,2447.0949,N,12100.5255,E,172.7,000.0,270516,,,A*61
$GPRMC,065841.000,A,2447.0949,N,12100.5255,E,172.7,000.0,270516,,,A*60
$GPRMC,065842.000,A,2447.0949,N,12100.5255,E,172.7,000.0,270516,,,A*63
$GPRMC,065843.000,A,2447.0949,N,12100.5255,E,172.7,000.0,270516,,,A*62
$GPRMC,065844.000,A,2447.0949,N,12100.5255,E,172.7,000.0,270516,,,A*65
$GPRMC,065845.000,A,2447.0949,N,12100.5255,E,172.7,000.0,270516,,,A*64
$GPRMC,065846.000,A,2447.0949,N,12100.5255,E,172.7,000.0,270516,,,A*67
$GPRMC,065847.000,A,2447.0949,N,12100.5255,E,172.7,000.0,270516,,,A*66
$GPRMC,065848.000,A,2447.0949,N,12100.5255,E,172.7,000.0,270516,,,A*69
$GPRMC,065849.000,A,2447.0949,N,12100.5255,E,172.7,000.0,270516,,,A*68
$GPRMC,065850.000,A,2447.0949,N,12100.5255,E,172.7,000.0,270516,,,A*60
$GPRMC,065851.000,A,2447.0949,N,12100.5255,E,172.7,000.0,270516,,,A*61
$GPRMC,065852.000,A,2447.0949,N,12100.5255,E,172.7,000.0,270516,,,A*62
$GPRMC,065853.000,A,2447.0949,N,12100.5255,E,172.7,000.0,270516,,,A*63
$GPRMC,065854.000,A,2447.0949,N,12100.5255,E,172.7,000.0,270516,,,A*64
$GPRMC,065855.000,A,2447.0949,N,12100.5255,E,172.7,000.0,270516,,,A*65
$GPRMC,065856.000,A,2447.0949,N,12100.5255,E,172.7,000.0,270516,,,A*66
$GPRMC,065857.000,A,2447.0949,N,12100.5255,E,172.7,000.0,270516,,,A*67
$GPRMC,065858.000,A,2447.0949,N,12100.5255,E,172.7,000.0,270516,,,A*68
$GPRMC,065859.000,A,2447.0949,N,12100.5255,E,172.7,000.0,270516,,,A*69
$GPRMC,065900.000,A,2447.0949,N,12100.5255,E,172.7,000.0,270516,,,A*64
$GPRMC,065901.000,A,2447.0949,N,12100.5255,E,172.7,000.0,270516,,,A*65
$GPRMC,065902.000,A,2447.0949,N,12100.5255,E,172.7,000.0,270516,,,A*66
$GPRMC,065903.000,A,2447.0949,N,12100.5255,E,172.7,000.0,270516,,,A*67
$GPRMC,065904.000,A,2447.0949,N,12100.5255,E,172.7,000.0,270516,,,A*60
$GPRMC,065905.000,A,2447.0949,N,12100.5255,E,172.7,000.0,270516,,,A*61
$GPRMC,065906.000,A,2447.0949,N,12100.5255,E,172.7,000.0,270516,,,A*62
$GPRMC,065907.000,A,2447.0949,N,12100.5255,E,172.7,000.0,270516,,,A*63
$GPRMC,065908.000,A,2447.0949,N,12100.5255,E,172.7,000.0,270516,,,A*6c
$GPRMC,065909.000,A,2447.0949,N,12100.5255,E,172.7,000.0,270516,,,A*6d
$GPRMC,065910.000,A,2447.0949,N,12100.5255,E,172.7,000.0,270516,,,A*65
$GPRMC,065911.000,A,2447.0949,N,12100.5255,E,172.7,000.0,270516,,,A*64
$GPRMC,065912.000,A,2447.0949,N,12100.5255,E,172.7,000.0,270516,,,A*67
$GPRMC,065913.000,A,2447.0949,N,12100.5255,E,172.7,000.0,270516,,,A*66
$GPRMC,065914.000,A,2447.0949,N,12100.5255,E,172.7,000.0,270516,,,A*61
$GPRMC,065915.000,A,2447.0949,N,12100.5255,E,172.7,000.0,270516,,,A*60
$GPRMC,065916.000,A,2447.0949,N,12100.5255,E,172.7,000.0,270516,,,A*63
$GPRMC,065917.000,A,2447.0949,N,12100.5255,E,172.7,000.0,270516,,,A*62
$GPRMC,065918.000,A,2447.0949,N,12100.5255,E,172.7,000.0,270516,,,A*6d
$GPRMC,065919.000,A,2447.0949,N,12100.5255,E,172.7,000.0,270516,,,A*6c
$GPRMC,065920.000,A,2447.0949,N,12100.5255,E,172.7,000.0,270516,,,A*66
$GPRMC,065921.000,A,2447.0949,N,12100.5255,E,172.7,000.0,270516,,,A*67
$GPRMC,065922.000,A,2447.0949,N,12100.5255,E,172.7,000.0,270516,,,A*64
$GPRMC,065923.000,A,2447.0949,N,12100.5255,E,172.7,000.0,270516,,,A*65
$GPRMC,065924.000,A,2447.0949,N,12100.5255,E,172.7,000.0,270516,,,A*62
$GPRMC,065925.000,A,2447.0949,N,12100.5255,E,172.7,000.0,270516,,,A*63
$GPRMC,065926.000,A,2447.0949,N,12100.5255,E,172.7,000.0,270516,,,A*60
$GPRMC,065927.000,A,2447.0949,N,12100.5255,E,172.7,000.0,270516,,,A*61
$GPRMC,065928.000,A,2447.0949,N,12100.5255,E,172.7,000.0,270516,,,A*6e
$GPRMC,065929.000,A,2447.0949,N,12100.5255,E,172.7,000.0,270516,,,A*6f
$GPRMC,065930.000,A,2447.0949,N,12100.5255,E,172.7,000.0,270516,,,A*67
$GPRMC,065931.000,A,2447.0949,N,12100.5255,E,172.7,000.0,270516,,,A*66
$GPRMC,065932.000,A,2447.0949,N,12100.5255,E,172.7,000.0,270516,,,A*65
$GPRMC,065933.000,A,2447.0949,N,12100.5255,E,172.7,000.0,270516,,,A*64
$GPRMC,065934.000,A,2447.0949,N,12100.5255,E,172.7,000.0,270516,,,A*63
$GPRMC,065935.000,A,2447.0949,N,12100.5255,E,172.7,000.0,270516,,,A*62
$GPRMC,065936.000,A,2447.0949,N,12100.5255,E,172.7,000.0,270516,,,A*61
$GPRMC,065937.000,A,2447.0949,N,12100.5255,E,172.7,000.0,270516,,,A*60
$GPRMC,065938.000,A,2447.0949,N,12100.5255,E,172.7,000.0,270516,,,A*6f
$GPRMC,065939.000,A,2447.0949,N,12100.5255,E,172.7,000.0,270516,,,A*6e
$GPRMC,065940.000,A,2447.0949,N,12100.5255,E,172.7,000.0,270516,,,A*60
$GPRMC,065941.000,A,2447.0949,N,12100.5255,E,172.7,000.0,270516,,,A*61
$GPRMC,065942.000,A,2447.0949,N,12100.5255,E,172.7,000.0,270516,,,A*62
$GPRMC,065943.000,A,2447.0949,N,12100.5255,E,172.7,000.0,270516,,,A*63
$GPRMC,065944.000,A,2447.0949,N,12100.5255,E,172.7,000.0,270516,,,A*64
$GPRMC,065945.000,A,2447.0949,N,12100.5255,E,172.7,000.0,270516,,,A*65
$GPRMC,065946.000,A,2447.0949,N,12100.5255,E,172.7,000.0,270516,,,A*66
$GPRMC,065947.000,A,2447.0949,N,12100.5255,E,172.7,000.0,270516,,,A*67
$GPRMC,065948.000,A,2447.0949,N,12100.5255,E,172.7,000.0,270516,,,A*68
$GPRMC,065949.000,A,2447.0949,N,12100.5255,E,172.7,000.0,270516,,,A*69
$GPRMC,065950.000,A,2447.0949,N,12100.5255,E,172.7,000.0,270516,,,A*61
$GPRMC,065951.000,A,2447.0949,N,12100.5255,E,172.7,000.0,270516,,,A*60
$GPRMC,065952.000,A,2447.0949,N,12100.5255,E,172.7,000.0,270516,,,A*63
$GPRMC,065953.000,A,2447.0949,N,12100.5255,E,172.7,000.0,270516,,,A*62
$GPRMC,065954.000,A,2447.0949,N,12100.5255,E,172.7,000.0,270516,,,A*65
$GPRMC,065955.000,A,2447.0949,N,12100.5255,E,172.7,000.0,270516,,,A*64
$GPRMC,065956.000,A,2447.0949,N,12100.5255,E,172.7,000.0,270516,,,A*67
$GPRMC,065957.000,A,2447.0949,N,12100.5255,E,172.7,000.0,270516,,,A*66
$GPRMC,065958.000,A,2447.0949,N,12100.5255,E,172.7,000.0,270516,,,A*69
$GPRMC,065959.000,A,2447.0949,N,12100.5255,E,172.7,000.0,270516,,,A*68
$GPRMC,070000.000,A,2447.0949,N,12100.5255,E,172.7,000.0,270516,,,A*69
$GPRMC,070001.000,A,2447.0949,N,12100.5255,E,172.7,000.0,270516,,,A*68
$GPRMC,070002.000,A,2447.0949,N,12100.5255,E,172.7,000.0,270516,,,A*6b
$GPRMC,070003.000,A,2447.0949,N,12100.5255,E,172.7,000.0,270516,,,A*6a
$GPRMC,070004.000,A,2447.0949,N,12100.5255,E,172.7,000.0,270516,,,A*6d
$GPRMC,070005.000,A,2447.0949,N,12100.5255,E,172.7,000.0,270516,,,A*6c
$GPRMC,070006.000,A,2447.0949,N,12100.5255,E,172.7,000.0,270516,,,A*6f
$GPRMC,070007.000,A,2447.0949,N,12100.5255,E,172.7,000.0,270516,,,A*6e
$GPRMC,070008.000,A,2447.0949,N,12100.5255,E,172.7,000.0,270516,,,A*61
$GPRMC,070009.000,A,2447.0949,N,12100.5255,E,172.7,000.0,270516,,,A*60
$GPRMC,070010.000,A,2447.0949,N,12100.5255,E,172.7,000.0,270516,,,A*68
$GPRMC,070011.000,A,2447.0949,N,12100.5255,E,172.7,000.0,270516,,,A*69
$GPRMC,070012.000,A,2447.0949,N,12100.5255,E,172.7,000.0,270516,,,A*6a
$GPRMC,070013.000,A,2447.0949,N,12100.5255,E,172.7,000.0,270516,,,A*6b
$GPRMC,070014.000,A,2447.0949,N,12100.5255,E,172.7,000.0,270516,,,A*6c
$GPRMC,070015.000,A,2447.0949,N,12100.5255,E,172.7,000.0,270516,,,A*6d
$GPRMC,070016.000,A,2447.0949,N,12100.5255,E,172.7,000.0,270516,,,A*6e
$GPRMC,070017.000,A,2447.0949,N,12100.5255,E,172.7,000.0,270516,,,A*6f
$GPRMC,070018.000,A,2447.0949,N,12100.5255,E,172.7,000.0,270516,,,A*60
$GPRMC,070019.000,A,2447.0949,N,12100.5255,E,172.7,000.0,270516,,,A*61
$GPRMC,070020.000,A,2447.0949,N,12100.5255,E,172.7,000.0,270516,,,A*6b
$GPRMC,070021.000,A,2447.0949,N,12100.5255,E,172.7,000.0,270516,,,A*6a
$GPRMC,070022.000,A,2447.0949,N,12100.5255,E,172.7,000.0,270516,,,A*69
$GPRMC,070023.000,A,2447.0949,N,12100.5255,E,172.7,000.0,270516,,,A*68
$GPRMC,070024.000,A,2447.0949,N,12100.5255,E,172.7,000.0,270516,,,A*6f
$GPRMC,070025.000,A,2447.0949,N,12100.5255,E,172.7,000.0,270516,,,A*6e
$GPRMC,070026.000,A,2447.0949,N,12100.5255,E,172.7,000.0,270516,,,A*6d
$GPRMC,070027.000,A,2447.0949,N,12100.5255,E,172.7,000.0,270516,,,A*6c
$GPRMC,070028.000,A,2447.0949,N,12100.5255,E,172.7,000.0,270516,,,A*63
$GPRMC,070029.000,A,2447.0949,N,12100.5255,E,172.7,000.0,270516,,,A*62
$GPRMC,070030.000,A,2447.0949,N,12100.5255,E,172.7,000.0,270516,,,A*6a
$GPRMC,070031.000,A,2447.0949,N,12100.5255,E,172.7,000.0,270516,,,A*6b
$GPRMC,070032.000,A,2447.0949,N,12100.5255,E,172.7,000.0,270516,,,A*68
$GPRMC,070033.000,A,2447.0949,N,12100.5255,E,172.7,000.0,270516,,,A*69
$GPRMC,070034.000,A,2447.0949,N,12100.5255,E,172.7,000.0,270516,,,A*6e
$GPRMC,070035.000,A,2447.0949,N,12100.5255,E,172.7,000.0,270516,,,A*6f
$GPRMC,070036.000,A,2447.0949,N,12100.5255,E,172.7,000.0,270516,,,A*6c
$GPRMC,070037.000,A,2447.0949,N,12100.5255,E,172.7,000.0,270516,,,A*6d
$GPRMC,070038.000,A,2447.0949,N,12100.5255,E,172.7,000.0,270516,,,A*62
$GPRMC,070039.000,A,2447.0949,N,12100.5255,E,172.7,000.0,270516,,,A*63
$GPRMC,070040.000,A,2447.0949,N,12100.5255,E,172.7,000.0,270516,,,A*6d
$GPRMC,070041.000,A,2447.0949,N,12100.5255,E,172.7,000.0,270516,,,A*6c
$GPRMC,070042.000,A,2447.0949,N,12100.5255,E,172.7,000.0,270516,,,A*6f
$GPRMC,070043.000,A,2447.0949,N,12100.5255,E,172.7,000.0,270516,,,A*6e
$GPRMC,070044.000,A,2447.0949,N,12100.5255,E,172.7,000.0,270516,,,A*69
$GPRMC,070045.000,A,2447.0949,N,12100.5255,E,172.7,000.0,270516,,,A*68
$GPRMC,070046.000,A,2447.0949,N,12100.5255,E,172.7,000.0,270516,,,A*6b
$GPRMC,070047.000,A,2447.0949,N,12100.5255,E,172.7,000.0,270516,,,A*6a
$GPRMC,070048.000,A,2447.0949,N,12100.5255,E,172.7,000.0,270516,,,A*65
$GPRMC,070049.000,A,2447.0949,N,12100.5255,E,172.7,000.0,270516,,,A*64
$GPRMC,070050.000,A,2447.0949,N,12100.5255,E,172.7,000.0,270516,,,A*6c
$GPRMC,070051.000,A,2447.0949,N,12100.5255,E,172.7,000.0,270516,,,A*6d
$GPRMC,070052.000,A,2447.0949,N,12100.5255,E,172.7,000.0,270516,,,A*6e
$GPRMC,070053.000,A,2447.0949,N,12100.5255,E,172.7,000.0,270516,,,A*6f
$GPRMC,070054.000,A,2447.0949,N,12100.5255,E,172.7,000.0,270516,,,A*68
$GPRMC,070055.000,A,2447.0949,N,12100.5255,E,172.7,000.0,270516,,,A*69
$GPRMC,070056.000,A,2447.0949,N,12100.5255,E,172.7,000.0,270516,,,A*6a
$GPRMC,070057.000,A,2447.0949,N,12100.5255,E,172.7,000.0,270516,,,A*6b
$GPRMC,070058.000,A,2447.0949,N,12100.5255,E,172.7,000.0,270516,,,A*64
$GPRMC,070059.000,A,2447.0949,N,12100.5255,E,172.7,000.0,270516,,,A*65
$GPRMC,070100.000,A,2447.0949,N,12100.5255,E,172.7,000.0,270516,,,A*68
$GPRMC,070101.000,A,2447.0949,N,12100.5255,E,172.7,000.0,270516,,,A*69
$GPRMC,070102.000,A,2447.0949,N,12100.5255,E,172.7,000.0,270516,,,A*6a
$GPRMC,070103.000,A,2447.0949,N,12100.5255,E,172.7,000.0,270516,,,A*6b
$GPRMC,070104.000,A,2447.0949,N,12100.5255,E,172.7,000.0,270516,,,A*6c
$GPRMC,070105.000,A,2447.0949,N,12100.5255,E,172.7,000.0,270516,,,A*6d
$GPRMC,070106.000,A,2447.0949,N,12100.5255,E,172.7,000.0,270516,,,A*6e
$GPRMC,070107.000,A,2447.0949,N,12100.5255,E,172.7,000.0,270516,,,A*6f
$GPRMC,070108.000,A,2447.0949,N,12100.5255,E,172.7,000.0,270516,,,A*60
$GPRMC,070109.000,A,2447.0949,N,12100.5255,E,172.7,000.0,270516,,,A*61
$GPRMC,070110.000,A,2447.0949,N,12100.5255,E,172.7,000.0,270516,,,A*69
$GPRMC,070111.000,A,2447.0949,N,12100.5255,E,172.7,000.0,270516,,,A*68
$GPRMC,070112.000,A,2447.0949,N,12100.5255,E,172.7,000.0,270516,,,A*6b
$GPRMC,070113.000,A,2447.0949,N,12100.5255,E,172.7,000.0,270516,,,A*6a
$GPRMC,070114.000,A,2447.0949,N,12100.5255,E,172.7,000.0,270516,,,A*6d
$GPRMC,070115.000,A,2447.0949,N,12100.5255,E,172.7,000.0,270516,,,A*6c
$GPRMC,070116.000,A,2447.0949,N,12100.5255,E,172.7,000.0,270516,,,A*6f
$GPRMC,070117.000,A,2447.0949,N,12100.5255,E,172.7,000.0,270516,,,A*6e
$GPRMC,070118.000,A,2447.0949,N,12100.5255,E,172.7,000.0,270516,,,A*61
$GPRMC,070119.000,A,2447.0949,N,12100.5255,E,172.7,000.0,270516,,,A*60
$GPRMC,070120.000,A,2447.0949,N,12100.5255,E,172.7,000.0,270516,,,A*6a
$GPRMC,070121.000,A,2447.0949,N,12100.5255,E,172.7,000.0,270516,,,A*6b
$GPRMC,070122.000,A,2447.0949,N,12100.5255,E,172.7,000.0,270516,,,A*68
$GPRMC,070123.000,A,2447.0949,N,12100.5255,E,172.7,000.0,270516,,,A*69
$GPRMC,070124.000,A,2447.0949,N,12100.5255,E,172.7,000.0,270516,,,A*6e
$GPRMC,070125.000,A,2447.0949,N,12100.5255,E,172.7,000.0,270516,,,A*6f
$GPRMC,070126.000,A,2447.0949,N,12100.5255,E,172.7,000.0,270516,,,A*6c
$GPRMC,070127.000,A,2447.0949,N,12100.5255,E,172.7,000.0,270516,,,A*6d
$GPRMC,070128.000,A,2447.0949,N,12100.5255,E,172.7,000.0,270516,,,A*62
$GPRMC,070129.000,A,2447.0949,N,12100.5255,E,172.7,000.0,270516,,,A*63
$GPRMC,070130.000,A,2447.0949,N,12100.5255,E,172.7,000.0,270516,,,A*6b
$GPRMC,070131.000,A,2447.0949,N,12100.5255,E,172.7,000.0,270516,,,A*6a
$GPRMC,070132.000,A,2447.0949,N,12100.5255,E,172.7,000.0,270516,,,A*69
$GPRMC,070133.000,A,2447.0949,N,12100.5255,E,172.7,000.0,270516,,,A*68
$GPRMC,070134.000,A,2447.0949,N,12100.5255,E,172.7,000.0,270516,,,A*6f
$GPRMC,070135.000,A,2447.0949,N,12100.5255,E,172.7,000.0,270516,,,A*6e
$GPRMC,070136.000,A,2447.0949,N,12100.5255,E,172.7,000.0,270516,,,A*6d
$GPRMC,070137.000,A,2447.0949,N,12100.5255,E,172.7,000.0,270516,,,A*6c
$GPRMC,070138.000,A,2447.0949,N,12100.5255,E,172.7,000.0,270516,,,A*63
$GPRMC,070139.000,A,2447.0949,N,12100.5255,E,172.7,000.0,270516,,,A*62
$GPRMC,070140.000,A,2447.0949,N,12100.5255,E,172.7,000.0,270516,,,A*6c
$GPRMC,070141.000,A,2447.0949,N,12100.5255,E,172.7,000.0,270516,,,A*6d
$GPRMC,070142.000,A,2447.0949,N,12100.5255,E,172.7,000.0,270516,,,A*6e
$GPRMC,070143.000,A,2447.0949,N,12100.5255,E,172.7,000.0,270516,,,A*6f
$GPRMC,070144.000,A,2447.0949,N,12100.5255,E,889.8,000.0,270516,,,A*6a
$GPRMC,070145.000,A,2447.0949,N,12100.5255,E,172.7,000.0,270516,,,A*69
$GPRMC,070146.000,A,2447.0949,N,12100.5255,E,172.7,000.0,270516,,,A*6a
$GPRMC,070147.000,A,2447.0949,N,12100.5255,E,172.7,000.0,270516,,,A*6b
$GPRMC,070148.000,A,2447.0949,N,12100.5255,E,172.7,000.0,270516,,,A*64
$GPRMC,070149.000,A,2447.0949,N,12100.5255,E,172.7,000.0,270516,,,A*65
$GPRMC,070150.000,A,2447.0949,N,12100.5255,E,172.7,000.0,270516,,,A*6d
$GPRMC,070151.000,A,2447.0949,N,12100.5255,E,172.7,000.0,270516,,,A*6c
$GPRMC,070152.000,A,2447.0949,N,12100.5255,E,172.7,000.0,270516,,,A*6f
$GPRMC,070153.000,A,2447.0949,N,12100.5255,E,172.7,000.0,270516,,,A*6e
$GPRMC,070154.000,A,2447.0949,N,12100.5255,E,172.7,000.0,270516,,,A*69
$GPRMC,070155.000,A,2447.0949,N,12100.5255,E,172.7,000.0,270516,,,A*68
$GPRMC,070156.000,A,2447.0949,N,12100.5255,E,172.7,000.0,270516,,,A*6b
$GPRMC,070157.000,A,2447.0949,N,12100.5255,E,172.7,000.0,270516,,,A*6a
$GPRMC,070158.000,A,2447.0949,N,12100.5255,E,172.7,000.0,270516,,,A*65
$GPRMC,070159.000,A,2447.0949,N,12100.5255,E,172.7,000.0,270516,,,A*64
$GPRMC,070200.000,A,2447.0949,N,12100.5255,E,172.7,000.0,270516,,,A*6b
$GPRMC,070201.000,A,2447.0949,N,12100.5255,E,172.7,000.0,270516,,,A*6a
$GPRMC,070202.000,A,2447.0949,N,12100.5255,E,172.7,000.0,270516,,,A*69
$GPRMC,070203.000,A,2447.0949,N,12100.5255,E,172.7,000.0,270516,,,A*68
$GPRMC,070204.000,A,2447.0949,N,12100.5255,E,172.7,000.0,270516,,,A*6f
$GPRMC,070205.000,A,2447.0949,N,12100.5255,E,172.7,000.0,270516,,,A*6e
$GPRMC,070206.000,A,2447.0949,N,12100.5255,E,172.7,000.0,270516,,,A*6d
$GPRMC,070207.000,A,2447.0949,N,12100.5255,E,172.7,000.0,270516,,,A*6c
$GPRMC,070208.000,A,2447.0949,N,12100.5255,E,172.7,000.0,270516,,,A*63
$GPRMC,070209.000,A,2447.0949,N,12100.5255,E,172.7,000.0,270516,,,A*62
$GPRMC,070445.000,A,2447.0923,N,12100.5254,E,000.0,000.0,270516,,,A*62
$GPRMC,070602.000,A,2447.0902,N,12100.5233,E,000.0,000.0,270516,,,A*61
$GPRMC,070603.000,A,2447.0906,N,12100.5216,E,000.0,000.0,270516,,,A*63
$GPRMC,070604.000,A,2447.0908,N,12100.5217,E,000.0,000.0,270516,,,A*6b
$GPRMC,070605.000,A,2447.0905,N,12100.5219,E,000.0,000.0,270516,,,A*69
$GPRMC,070606.000,A,2447.0905,N,12100.5219,E,000.0,000.0,270516,,,A*6a
$GPRMC,070607.000,A,2447.0905,N,12100.5219,E,000.0,000.0,270516,,,A*6b
$GPRMC,070608.000,A,2447.0905,N,12100.5219,E,000.0,000.0,270516,,,A*64
$GPRMC,070609.000,A,2447.0909,N,12100.5219,E,000.0,000.0,270516,,,A*69
$GPRMC,070610.000,A,2447.0909,N,12100.5219,E,000.0,000.0,270516,,,A*61
$GPRMC,070611.000,A,2447.0909,N,12100.5219,E,000.0,000.0,270516,,,A*60
$GPRMC,070612.000,A,2447.0909,N,12100.5219,E,000.0,000.0,270516,,,A*63
$GPRMC,070613.000,A,2447.0909,N,12100.5219,E,000.0,000.0,270516,,,A*62
$GPRMC,070614.000,A,2447.0909,N,12100.5219,E,000.0,000.0,270516,,,A*65
$GPRMC,070615.000,A,2447.0908,N,12100.5224,E,000.0,000.0,270516,,,A*6b
$GPRMC,070616.000,A,2447.0908,N,12100.5224,E,000.0,000.0,270516,,,A*68
$GPRMC,070617.000,A,2447.0908,N,12100.5224,E,000.0,000.0,270516,,,A*69
$GPRMC,070618.000,A,2447.0908,N,12100.5224,E,000.0,000.0,270516,,,A*66
$GPRMC,070619.000,A,2447.0908,N,12100.5224,E,000.0,000.0,270516,,,A*67
$GPRMC,070620.000,A,2447.0908,N,12100.5224,E,000.0,000.0,270516,,,A*6d
$GPRMC,070621.000,A,2447.0906,N,12100.5221,E,000.0,000.0,270516,,,A*67
$GPRMC,070622.000,A,2447.0906,N,12100.5221,E,000.0,000.0,270516,,,A*64
$GPRMC,070623.000,A,2447.0906,N,12100.5221,E,000.0,000.0,270516,,,A*65
$GPRMC,070624.000,A,2447.0906,N,12100.5221,E,000.0,000.0,270516,,,A*62
$GPRMC,070625.000,A,2447.0906,N,12100.5221,E,000.0,000.0,270516,,,A*63
$GPRMC,070626.000,A,2447.0906,N,12100.5221,E,000.0,000.0,270516,,,A*60
$GPRMC,070627.000,A,2447.0906,N,12100.5221,E,000.0,000.0,270516,,,A*61
$GPRMC,070628.000,A,2447.0906,N,12100.5221,E,000.0,000.0,270516,,,A*6e
$GPRMC,070629.000,A,2447.0906,N,12100.5221,E,000.0,000.0,270516,,,A*6f
$GPRMC,070630.000,A,2447.0906,N,12100.5221,E,000.0,000.0,270516,,,A*67
$GPRMC,070631.000,A,2447.0906,N,12100.5221,E,000.0,000.0,270516,,,A*66
$GPRMC,070632.000,A,2447.0906,N,12100.5221,E,000.0,000.0,270516,,,A*65
$GPRMC,070633.000,A,2447.0906,N,12100.5221,E,000.0,000.0,270516,,,A*64
$GPRMC,070634.000,A,2447.0906,N,12100.5221,E,000.0,000.0,270516,,,A*63
$GPRMC,070635.000,A,2447.0906,N,12100.5221,E,000.0,000.0,270516,,,A*62
$GPRMC,070636.000,A,2447.0906,N,12100.5221,E,000.0,000.0,270516,,,A*61
$GPRMC,070637.000,A,2447.0906,N,12100.5221,E,000.0,000.0,270516,,,A*60
$GPRMC,070638.000,A,2447.0906,N,12100.5221,E,000.0,000.0,270516,,,A*6f
$GPRMC,070639.000,A,2447.0906,N,12100.5221,E,000.0,000.0,270516,,,A*6e
$GPRMC,070640.000,A,2447.0906,N,12100.5221,E,000.0,000.0,270516,,,A*60
$GPRMC,070641.000,A,2447.0906,N,12100.5221,E,000.0,000.0,270516,,,A*61
$GPRMC,070642.000,A,2447.0906,N,12100.5221,E,000.0,000.0,270516,,,A*62
$GPRMC,070643.000,A,2447.0906,N,12100.5221,E,000.0,000.0,270516,,,A*63
$GPRMC,070644.000,A,2447.0906,N,12100.5221,E,000.0,000.0,270516,,,A*64
$GPRMC,070645.000,A,2447.0906,N,12100.5221,E,000.0,000.0,270516,,,A*65
$GPRMC,070646.000,A,2447.0906,N,12100.5221,E,000.0,000.0,270516,,,A*66
$GPRMC,070647.000,A,2447.0906,N,12100.5221,E,000.0,000.0,270516,,,A*67
$GPRMC,070648.000,A,2447.0906,N,12100.5221,E,000.0,000.0,270516,,,A*68
$GPRMC,070649.000,A,2447.0906,N,12100.5221,E,000.0,000.0,270516,,,A*69
$GPRMC,070650.000,A,2447.0906,N,12100.5221,E,000.0,000.0,270516,,,A*61
$GPRMC,070651.000,A,2447.0906,N,12100.5221,E,000.0,000.0,270516,,,A*60
$GPRMC,070652.000,A,2447.0906,N,12100.5221,E,000.0,000.0,270516,,,A*63
$GPRMC,070653.000,A,2447.0906,N,12100.5221,E,000.0,000.0,270516,,,A*62
$GPRMC,070654.000,A,2447.0906,N,12100.5221,E,000.0,000.0,270516,,,A*65
$GPRMC,070655.000,A,2447.0906,N,12100.5221,E,000.0,000.0,270516,,,A*64
$GPRMC,070656.000,A,2447.0906,N,12100.5221,E,000.0,000.0,270516,,,A*67
$GPRMC,070657.000,A,2447.0906,N,12100.5221,E,000.0,000.0,270516,,,A*66
$GPRMC,070658.000,A,2447.0906,N,12100.5221,E,000.0,000.0,270516,,,A*69
$GPRMC,070659.000,A,2447.0906,N,12100.5221,E,000.0,000.0,270516,,,A*68
$GPRMC,070700.000,A,2447.0906,N,12100.5221,E,000.0,000.0,270516,,,A*65
$GPRMC,070701.000,A,2447.0906,N,12100.5221,E,000.0,000.0,270516,,,A*64
$GPRMC,070702.000,A,2447.0906,N,12100.5221,E,000.0,000.0,270516,,,A*67
$GPRMC,070703.000,A,2447.0906,N,12100.5221,E,000.0,000.0,270516,,,A*66
$GPRMC,070704.000,A,2447.0906,N,12100.5221,E,000.0,000.0,270516,,,A*61
$GPRMC,070705.000,A,2447.0906,N,12100.5221,E,000.0,000.0,270516,,,A*60
$GPRMC,070706.000,A,2447.0906,N,12100.5221,E,000.0,000.0,270516,,,A*63
$GPRMC,070707.000,A,2447.0906,N,12100.5221,E,000.0,000.0,270516,,,A*62
$GPRMC,070708.000,A,2447.0906,N,12100.5221,E,000.0,000.0,270516,,,A*6d
$GPRMC,070709.000,A,2447.0906,N,12100.5221,E,000.0,000.0,270516,,,A*6c
$GPRMC,070710.000,A,2447.0906,N,12100.5221,E,000.0,000.0,270516,,,A*64
$GPRMC,070711.000,A,2447.0906,N,12100.5221,E,000.0,000.0,270516,,,A*65
$GPRMC,070712.000,A,2447.0906,N,12100.5221,E,000.0,000.0,270516,,,A*66
$GPRMC,070713.000,A,2447.0906,N,12100.5221,E,000.0,000.0,270516,,,A*67
$GPRMC,070714.000,A,2447.0906,N,12100.5221,E,000.0,000.0,270516,,,A*60
$GPRMC,070715.000,A,2447.0906,N,12100.5221,E,000.0,000.0,270516,,,A*61
$GPRMC,070716.000,A,2447.0906,N,12100.5221,E,000.0,000.0,270516,,,A*62
$GPRMC,070717.000,A,2447.0906,N,12100.5221,E,000.0,000.0,270516,,,A*63
$GPRMC,070718.000,A,2447.0906,N,12100.5221,E,000.0,000.0,270516,,,A*6c
$GPRMC,070719.000,A,2447.0906,N,12100.5221,E,000.0,000.0,270516,,,A*6d
$GPRMC,070720.000,A,2447.0906,N,12100.5221,E,000.0,000.0,270516,,,A*67
$GPRMC,070721.000,A,2447.0906,N,12100.5221,E,000.0,000.0,270516,,,A*66
$GPRMC,070722.000,A,2447.0906,N,12100.5221,E,000.0,000.0,270516,,,A*65
$GPRMC,070723.000,A,2447.0906,N,12100.5221,E,000.0,000.0,270516,,,A*64
$GPRMC,070724.000,A,2447.0906,N,12100.5221,E,000.0,000.0,270516,,,A*63
$GPRMC,070725.000,A,2447.0906,N,12100.5221,E,000.0,000.0,270516,,,A*62
$GPRMC,070726.000,A,2447.0906,N,12100.5221,E,000.0,000.0,270516,,,A*61
$GPRMC,070727.000,A,2447.0906,N,12100.5221,E,000.0,000.0,270516,,,A*60
$GPRMC,070728.000,A,2447.0906,N,12100.5221,E,000.0,000.0,270516,,,A*6f
$GPRMC,070729.000,A,2447.0906,N,12100.5221,E,000.0,000.0,270516,,,A*6e
$GPRMC,070730.000,A,2447.0906,N,12100.5221,E,000.0,000.0,270516,,,A*66
$GPRMC,070731.000,A,2447.0906,N,12100.5221,E,000.0,000.0,270516,,,A*67
$GPRMC,070732.000,A,2447.0906,N,12100.5221,E,000.0,000.0,270516,,,A*64
$GPRMC,070733.000,A,2447.0906,N,12100.5221,E,000.0,000.0,270516,,,A*65
$GPRMC,070734.000,A,2447.0906,N,12100.5221,E,000.0,000.0,270516,,,A*62
$GPRMC,070735.000,A,2447.0906,N,12100.5221,E,000.0,000.0,270516,,,A*63
$GPRMC,070736.000,A,2447.0906,N,12100.5221,E,000.0,000.0,270516,,,A*60
$GPRMC,070737.000,A,2447.0906,N,12100.5221,E,000.0,000.0,270516,,,A*61
$GPRMC,070738.000,A,2447.0906,N,12100.5221,E,000.0,000.0,270516,,,A*6e
$GPRMC,070739.000,A,2447.0906,N,12100.5221,E,000.0,000.0,270516,,,A*6f
$GPRMC,070740.000,A,2447.0906,N,12100.5221,E,000.0,000.0,270516,,,A*61
$GPRMC,070741.000,A,2447.0906,N,12100.5221,E,000.0,000.0,270516,,,A*60
$GPRMC,070742.000,A,2447.0906,N,12100.5221,E,000.0,000.0,270516,,,A*63
$GPRMC,070743.000,A,2447.0906,N,12100.5221,E,000.0,000.0,270516,,,A*62
$GPRMC,070744.000,A,2447.0906,N,12100.5221,E,000.0,000.0,270516,,,A*65
$GPRMC,070745.000,A,2447.0906,N,12100.5221,E,000.0,000.0,270516,,,A*64
$GPRMC,070746.000,A,2447.0906,N,12100.5221,E,000.0,000.0,270516,,,A*67
$GPRMC,070747.000,A,2447.0906,N,12100.5221,E,000.0,000.0,270516,,,A*66
$GPRMC,070748.000,A,2447.0906,N,12100.5221,E,000.0,000.0,270516,,,A*69
$GPRMC,070749.000,A,2447.0906,N,12100.5221,E,000.0,000.0,270516,,,A*68
$GPRMC,070750.000,A,2447.0906,N,12100.5221,E,000.0,000.0,270516,,,A*60
$GPRMC,070751.000,A,2447.0906,N,12100.5221,E,000.0,000.0,270516,,,A*61
$GPRMC,070752.000,A,2447.0906,N,12100.5221,E,000.0,000.0,270516,,,A*62
$GPRMC,070753.000,A,2447.0906,N,12100.5221,E,000.0,000.0,270516,,,A*63
$GPRMC,070754.000,A,2447.0906,N,12100.5221,E,000.0,000.0,270516,,,A*64
$GPRMC,070755.000,A,2447.0906,N,12100.5221,E,000.0,000.0,270516,,,A*65
$GPRMC,070756.000,A,2447.0906,N,12100.5221,E,000.0,000.0,270516,,,A*66
$GPRMC,070757.000,A,2447.0903,N,12100.5225,E,000.0,000.0,270516,,,A*66
$GPRMC,070758.000,A,2447.0903,N,12100.5225,E,000.0,000.0,270516,,,A*69
$GPRMC,070759.000,A,2447.0903,N,12100.5225,E,000.0,000.0,270516,,,A*68
$GPRMC,070800.000,A,2447.0903,N,12100.5225,E,000.0,000.0,270516,,,A*6b
$GPRMC,070801.000,A,2447.0903,N,12100.5225,E,000.0,000.0,270516,,,A*6a
$GPRMC,070802.000,A,2447.0903,N,12100.5225,E,000.0,000.0,270516,,,A*69
$GPRMC,070803.000,A,2447.0903,N,12100.5225,E,000.0,000.0,270516,,,A*68
$GPRMC,070804.000,A,2447.0903,N,12100.5225,E,000.0,000.0,270516,,,A*6f
$GPRMC,070805.000,A,2447.0903,N,12100.5225,E,000.0,000.0,270516,,,A*6e
$GPRMC,070806.000,A,2447.0903,N,12100.5225,E,000.0,000.0,270516,,,A*6d
$GPRMC,070807.000,A,2447.0903,N,12100.5225,E,000.0,000.0,270516,,,A*6c
$GPRMC,070808.000,A,2447.0903,N,12100.5225,E,000.0,000.0,270516,,,A*63
$GPRMC,070809.000,A,2447.0903,N,12100.5225,E,000.0,000.0,270516,,,A*62
$GPRMC,070810.000,A,2447.0903,N,12100.5225,E,053.9,000.0,270516,,,A*65
$GPRMC,070811.000,A,2447.0903,N,12100.5225,E,107.9,000.0,270516,,,A*64
$GPRMC,070812.000,A,2447.0908,N,12100.5225,E,107.9,000.0,270516,,,A*6c
$GPRMC,070813.000,A,2447.0908,N,12100.5225,E,053.9,000.0,270516,,,A*6d
$GPRMC,070814.000,A,2447.0914,N,12100.5225,E,000.0,000.0,270516,,,A*68
$GPRMC,070815.000,A,2447.0915,N,12100.5221,E,161.9,000.0,270516,,,A*63
$GPRMC,070816.000,A,2447.0911,N,12100.5228,E,053.9,000.0,270516,,,A*6d
$GPRMC,070817.000,A,2447.0908,N,12100.5225,E,000.0,000.0,270516,,,A*66
$GPRMC,070818.000,A,2447.0907,N,12100.5230,E,053.9,000.0,270516,,,A*6d
$GPRMC,070819.000,A,2447.0907,N,12100.5230,E,000.0,000.0,270516,,,A*63
$GPRMC,070820.000,A,2447.0909,N,12100.5234,E,000.0,000.0,270516,,,A*63
$GPRMC,070821.000,A,2447.0911,N,12100.5228,E,053.9,000.0,270516,,,A*69
$GPRMC,070822.000,A,2447.0911,N,12100.5228,E,000.0,000.0,270516,,,A*65
$GPRMC,070823.000,A,2447.0912,N,12100.5224,E,053.9,000.0,270516,,,A*64
$GPRMC,070824.000,A,2447.0915,N,12100.5221,E,053.9,000.0,270516,,,A*61
$GPRMC,070825.000,A,2447.0915,N,12100.5221,E,000.0,000.0,270516,,,A*6f
$GPRMC,070826.000,A,2447.0915,N,12100.5221,E,053.9,000.0,270516,,,A*63
$GPRMC,070827.000,A,2447.0914,N,12100.5200,E,269.9,000.0,270516,,,A*6b
$GPRMC,070828.000,A,2447.0915,N,12100.5187,E,323.9,000.0,270516,,,A*66
$GPRMC,070829.000,A,2447.0916,N,12100.5182,E,215.9,000.0,270516,,,A*65
$GPRMC,070830.000,A,2447.0915,N,12100.5174,E,107.9,000.0,270516,,,A*67
$GPRMC,070831.000,A,2447.0916,N,12100.5168,E,107.9,000.0,270516,,,A*68
$GPRMC,070832.000,A,2447.0915,N,12100.5161,E,107.9,000.0,270516,,,A*61
$GPRMC,070833.000,A,2447.0905,N,12100.5152,E,269.9,000.0,270516,,,A*6a
$GPRMC,070834.000,A,2447.0899,N,12100.5144,E,215.9,000.0,270516,,,A*65
$GPRMC,070835.000,A,2447.0893,N,12100.5136,E,215.9,000.0,270516,,,A*6b
