$GPRMC,065134.000,A,12100.5262,N,0.0000,E,1434948.7,000.0,010100,,,A*5a
$GPRMC,065135.000,A,12100.5257,N,0.0000,E,1434948.7,000.0,010100,,,A*5d
$GPRMC,065136.000,A,12100.5260,N,0.0000,E,1434948.1,000.0,010100,,,A*5c
$GPRMC,065137.000,A,12100.5260,N,0.0000,E,1434948.1,000.0,010100,,,A*5d
$GPRMC,065138.000,A,12100.5259,N,0.0000,E,1434948.7,000.0,010100,,,A*5e
$GPRMC,065139.000,A,12100.5259,N,0.0000,E,1434948.7,000.0,010100,,,A*5f
$GPRMC,065140.000,A,12100.5259,N,0.0000,E,1434948.7,000.0,010100,,,A*51
$GPRMC,065141.000,A,12100.5259,N,0.0000,E,1434948.7,000.0,010100,,,A*50
$GPRMC,065142.000,A,12100.5259,N,0.0000,E,1434948.1,000.0,010100,,,A*55
$GPRMC,065143.000,A,12100.5259,N,0.0000,E,1434948.1,000.0,010100,,,A*54
$GPRMC,065144.000,A,12100.5259,N,0.0000,E,1434948.1,000.0,010100,,,A*53
$GPRMC,065145.000,A,12100.5259,N,0.0000,E,1434948.1,000.0,010100,,,A*52
$GPRMC,065146.000,A,12100.5256,N,0.0000,E,1434948.7,000.0,010100,,,A*58
$GPRMC,065147.000,A,12100.5256,N,0.0000,E,1434948.7,000.0,010100,,,A*59
$GPRMC,065148.000,A,12100.5256,N,0.0000,E,1434948.7,000.0,010100,,,A*56
$GPRMC,065149.000,A,12100.5256,N,0.0000,E,1434948.7,000.0,010100,,,A*57
$GPRMC,065150.000,A,12100.5256,N,0.0000,E,1434948.7,000.0,010100,,,A*5f
$GPRMC,065151.000,A,12100.5256,N,0.0000,E,1434948.7,000.0,010100,,,A*5e
$GPRMC,065152.000,A,12100.5256,N,0.0000,E,1434948.7,000.0,010100,,,A*5d
$GPRMC,065153.000,A,12100.5256,N,0.0000,E,1434948.7,000.0,010100,,,A*5c
$GPRMC,065154.000,A,12100.5256,N,0.0000,E,1434948.7,000.0,010100,,,A*5b
$GPRMC,065155.000,A,12100.5256,N,0.0000,E,1434948.7,000.0,010100,,,A*5a
$GPRMC,065156.000,A,12100.5256,N,0.0000,E,1434948.7,000.0,010100,,,A*59
$GPRMC,065157.000,A,12100.5256,N,0.0000,E,1434948.7,000.0,010100,,,A*58
$GPRMC,065158.000,A,12100.5256,N,0.0000,E,1434948.7,000.0,010100,,,A*57
$GPRMC,065159.000,A,12100.5256,N,0.0000,E,1434948.7,000.0,010100,,,A*56
$GPRMC,065200.000,A,12100.5256,N,0.0000,E,1434948.7,000.0,010100,,,A*59
$GPRMC,065201.000,A,12100.5256,N,0.0000,E,1434948.7,000.0,010100,,,A*58
$GPRMC,065202.000,A,12100.5256,N,0.0000,E,1434948.7,000.0,010100,,,A*5b
$GPRMC,065203.000,A,12100.5256,N,0.0000,E,1434948.7,000.0,010100,,,A*5a
$GPRMC,065204.000,A,12100.5256,N,0.0000,E,1434948.7,000.0,010100,,,A*5d
$GPRMC,065205.000,A,12100.5256,N,0.0000,E,1434948.7,000.0,010100,,,A*5c
$GPRMC,065206.000,A,12100.5256,N,0.0000,E,1434948.7,000.0,010100,,,A*5f
$GPRMC,065207.000,A,12100.5256,N,0.0000,E,1434948.7,000.0,010100,,,A*5e
$GPRMC,065208.000,A,12100.5256,N,0.0000,E,1434948.7,000.0,010100,,,A*51
$GPRMC,065209.000,A,12100.5256,N,0.0000,E,1434948.7,000.0,010100,,,A*50
$GPRMC,065210.000,A,12100.5256,N,0.0000,E,1434948.7,000.0,010100,,,A*58
$GPRMC,065211.000,A,12100.5258,N,0.0000,E,1434947.6,000.0,010100,,,A*59
$GPRMC,065212.000,A,12100.5258,N,0.0000,E,1434947.6,000.0,010100,,,A*5a
$GPRMC,065213.000,A,12100.5258,N,0.0000,E,1434947.6,000.0,010100,,,A*5b
$GPRMC,065214.000,A,12100.5258,N,0.0000,E,1434947.6,000.0,010100,,,A*5c
$GPRMC,065215.000,A,12100.5258,N,0.0000,E,1434947.6,000.0,010100,,,A*5d
$GPRMC,065216.000,A,12100.5258,N,0.0000,E,1434947.6,000.0,010100,,,A*5e
$GPRMC,065217.000,A,12100.5258,N,0.0000,E,1434947.6,000.0,010100,,,A*5f
$GPRMC,065218.000,A,12100.5258,N,0.0000,E,1434947.6,000.0,010100,,,A*50
$GPRMC,065219.000,A,12100.5258,N,0.0000,E,1434947.6,000.0,010100,,,A*51
$GPRMC,065220.000,A,12100.5258,N,0.0000,E,1434947.6,000.0,010100,,,A*5b
$GPRMC,065221.000,A,12100.5258,N,0.0000,E,1434947.6,000.0,010100,,,A*5a
$GPRMC,065222.000,A,12100.5258,N,0.0000,E,1434947.6,000.0,010100,,,A*59
$GPRMC,065223.000,A,12100.5258,N,0.0000,E,1434947.6,000.0,010100,,,A*58
$GPRMC,065224.000,A,12100.5258,N,0.0000,E,1434947.6,000.0,010100,,,A*5f
$GPRMC,065229.000,A,12100.5264,N,5700.0000,E,1434946.5,000.0,010100,,,A*6d
$GPRMC,065230.000,A,12100.5213,N,3700.0000,E,1434947.6,000.0,010100,,,A*61
$GPRMC,065231.000,A,12100.5194,N,2300.0000,E,1434947.6,000.0,010100,,,A*69
$GPRMC,065232.000,A,12100.5188,N,1400.0000,E,1434948.1,000.0,010100,,,A*6b
$GPRMC,065233.000,A,12100.5194,N,800.0000,E,1434948.1,000.0,010100,,,A*5a
$GPRMC,065234.000,A,12100.5191,N,400.0000,E,1434948.7,000.0,010100,,,A*52
$GPRMC,065235.000,A,12100.5196,N,200.0000,E,1434949.2,000.0,010100,,,A*56
$GPRMC,065236.000,A,12100.5190,N,0.0000,E,1434950.3,000.0,010100,,,A*58
$GPRMC,065237.000,A,12100.5189,N,0.0000,E,1434950.8,000.0,010100,,,A*5a
$GPRMC,065238.000,A,12100.5191,N,0.0000,E,1434950.8,000.0,010100,,,A*5c
$GPRMC,065239.000,A,12100.5193,N,0.0000,E,1434951.3,000.0,010100,,,A*55
$GPRMC,065240.000,A,12100.5195,N,0.0000,E,1434951.3,000.0,010100,,,A*5d
$GPRMC,065241.000,A,12100.5194,N,0.0000,E,1434952.0,000.0,010100,,,A*5d
$GPRMC,065242.000,A,12100.5191,N,0.0000,E,1434952.0,000.0,010100,,,A*5b
$GPRMC,065243.000,A,12100.5196,N,0.0000,E,1434952.5,000.0,010100,,,A*58
$GPRMC,065244.000,A,12100.5193,N,0.0000,E,1434952.5,000.0,010100,,,A*5a
$GPRMC,065245.000,A,12100.5195,N,0.0000,E,1434952.5,000.0,010100,,,A*5d
$GPRMC,065246.000,A,12100.5192,N,0.0000,E,1434953.0,000.0,010100,,,A*5d
$GPRMC,065247.000,A,12100.5192,N,0.0000,E,1434953.0,000.0,010100,,,A*5c
$GPRMC,065248.000,A,12100.5192,N,0.0000,E,1434953.0,000.0,010100,,,A*53
$GPRMC,065249.000,A,12100.5192,N,0.0000,E,1434953.0,000.0,010100,,,A*52
$GPRMC,065250.000,A,12100.5192,N,0.0000,E,1434953.0,000.0,010100,,,A*5a
$GPRMC,065251.000,A,12100.5192,N,0.0000,E,1434953.0,000.0,010100,,,A*5b
$GPRMC,065252.000,A,12100.5192,N,0.0000,E,1434953.0,000.0,010100,,,A*58
$GPRMC,065253.000,A,12100.5192,N,0.0000,E,1434953.0,000.0,010100,,,A*59
$GPRMC,065254.000,A,12100.5192,N,0.0000,E,1434953.0,000.0,010100,,,A*5e
$GPRMC,065255.000,A,12100.5192,N,0.0000,E,1434953.0,000.0,010100,,,A*5f
$GPRMC,065256.000,A,12100.5192,N,0.0000,E,1434953.0,000.0,010100,,,A*5c
$GPRMC,065257.000,A,12100.5192,N,0.0000,E,1434953.0,000.0,010100,,,A*5d
$GPRMC,065258.000,A,12100.5192,N,0.0000,E,1434953.0,000.0,010100,,,A*52
$GPRMC,065259.000,A,12100.5192,N,0.0000,E,1434953.0,000.0,010100,,,A*53
$GPRMC,065300.000,A,12100.5192,N,0.0000,E,1434953.0,000.0,010100,,,A*5e
$GPRMC,065301.000,A,12100.5192,N,0.0000,E,1434953.0,000.0,010100,,,A*5f
$GPRMC,065302.000,A,12100.5192,N,0.0000,E,1434953.0,000.0,010100,,,A*5c
$GPRMC,065303.000,A,12100.5197,N,0.0000,E,1434955.1,000.0,010100,,,A*5f
$GPRMC,065304.000,A,12100.5197,N,0.0000,E,1434955.1,000.0,010100,,,A*58
$GPRMC,065305.000,A,12100.5197,N,0.0000,E,1434955.1,000.0,010100,,,A*59
$GPRMC,065306.000,A,12100.5197,N,0.0000,E,1434955.1,000.0,010100,,,A*5a
$GPRMC,065307.000,A,12100.5197,N,0.0000,E,1434955.1,000.0,010100,,,A*5b
$GPRMC,065308.000,A,12100.5197,N,0.0000,E,1434955.1,000.0,010100,,,A*54
$GPRMC,065309.000,A,12100.5197,N,0.0000,E,1434955.1,000.0,010100,,,A*55
$GPRMC,065310.000,A,12100.5197,N,0.0000,E,1434955.1,000.0,010100,,,A*5d
$GPRMC,065311.000,A,12100.5197,N,0.0000,E,1434955.1,000.0,010100,,,A*5c
$GPRMC,065312.000,A,12100.5197,N,0.0000,E,1434955.1,000.0,010100,,,A*5f
$GPRMC,065313.000,A,12100.5197,N,0.0000,E,1434955.1,000.0,010100,,,A*5e
$GPRMC,065314.000,A,12100.5197,N,0.0000,E,1434955.1,000.0,010100,,,A*59
$GPRMC,065315.000,A,12100.5197,N,0.0000,E,1434955.1,000.0,010100,,,A*58
$GPRMC,065316.000,A,12100.5197,N,0.0000,E,1434955.1,000.0,010100,,,A*5b
$GPRMC,065317.000,A,12100.5197,N,0.0000,E,1434955.1,000.0,010100,,,A*5a
$GPRMC,065318.000,A,12100.5197,N,0.0000,E,1434955.1,000.0,010100,,,A*55
$GPRMC,065319.000,A,12100.5197,N,0.0000,E,1434955.1,000.0,010100,,,A*54
$GPRMC,065320.000,A,12100.5197,N,0.0000,E,1434955.1,000.0,010100,,,A*5e
$GPRMC,065321.000,A,12100.5197,N,0.0000,E,1434955.1,000.0,010100,,,A*5f
$GPRMC,065322.000,A,12100.5197,N,0.0000,E,1434955.1,000.0,010100,,,A*5c
$GPRMC,065323.000,A,12100.5197,N,0.0000,E,1434955.1,000.0,010100,,,A*5d
$GPRMC,065324.000,A,12100.5197,N,0.0000,E,1434955.1,000.0,010100,,,A*5a
$GPRMC,065325.000,A,12100.5197,N,0.0000,E,1434955.1,000.0,010100,,,A*5b
$GPRMC,065330.000,A,12100.5200,N,5100.0000,E,1434955.7,000.0,010100,,,A*60
$GPRMC,065331.000,A,12100.5171,N,3400.0000,E,1434956.2,000.0,010100,,,A*61
$GPRMC,065332.000,A,12100.5159,N,2100.0000,E,1434956.2,000.0,010100,,,A*6c
$GPRMC,065333.000,A,12100.5155,N,1200.0000,E,1434956.2,000.0,010100,,,A*61
$GPRMC,065334.000,A,12100.5144,N,600.0000,E,1434956.2,000.0,010100,,,A*53
$GPRMC,065335.000,A,12100.5143,N,200.0000,E,1434957.3,000.0,010100,,,A*51
$GPRMC,065336.000,A,12100.5164,N,200.0000,E,1434956.2,000.0,010100,,,A*57
$GPRMC,065337.000,A,12100.5244,N,0.0000,E,1434953.6,000.0,010100,,,A*54
$GPRMC,065338.000,A,12100.5257,N,200.0000,E,1434952.0,000.0,010100,,,A*5c
$GPRMC,065339.000,A,12100.5255,N,0.0000,E,1434953.6,000.0,010100,,,A*5a
$GPRMC,065340.000,A,12100.5256,N,0.0000,E,1434954.1,000.0,010100,,,A*57
$GPRMC,065341.000,A,12100.5255,N,0.0000,E,1434954.6,000.0,010100,,,A*52
$GPRMC,065342.000,A,12100.5257,N,0.0000,E,1434954.6,000.0,010100,,,A*53
$GPRMC,065343.000,A,12100.5257,N,0.0000,E,1434954.6,000.0,010100,,,A*52
$GPRMC,065344.000,A,12100.5255,N,0.0000,E,1434954.1,000.0,010100,,,A*50
$GPRMC,065345.000,A,12100.5255,N,0.0000,E,1434954.1,000.0,010100,,,A*51
$GPRMC,065346.000,A,12100.5255,N,0.0000,E,1434954.1,000.0,010100,,,A*52
$GPRMC,065347.000,A,12100.5260,N,0.0000,E,1434954.1,000.0,010100,,,A*55
$GPRMC,065348.000,A,12100.5260,N,0.0000,E,1434954.1,000.0,010100,,,A*5a
$GPRMC,065349.000,A,12100.5260,N,0.0000,E,1434954.1,000.0,010100,,,A*5b
$GPRMC,065350.000,A,12100.5260,N,0.0000,E,1434954.1,000.0,010100,,,A*53
$GPRMC,065351.000,A,12100.5260,N,0.0000,E,1434954.1,000.0,010100,,,A*52
$GPRMC,065352.000,A,12100.5260,N,0.0000,E,1434954.1,000.0,010100,,,A*51
$GPRMC,065353.000,A,12100.5260,N,0.0000,E,1434954.1,000.0,010100,,,A*50
$GPRMC,065354.000,A,12100.5260,N,0.0000,E,1434954.1,000.0,010100,,,A*57
$GPRMC,065355.000,A,12100.5255,N,0.0000,E,1434953.6,000.0,010100,,,A*50
$GPRMC,065356.000,A,12100.5255,N,0.0000,E,1434953.6,000.0,010100,,,A*53
$GPRMC,065357.000,A,12100.5255,N,0.0000,E,1434953.6,000.0,010100,,,A*52
$GPRMC,065358.000,A,12100.5255,N,0.0000,E,1434953.6,000.0,010100,,,A*5d
$GPRMC,065359.000,A,12100.5255,N,0.0000,E,1434953.6,000.0,010100,,,A*5c
$GPRMC,065400.000,A,12100.5255,N,0.0000,E,1434953.6,000.0,010100,,,A*57
$GPRMC,065401.000,A,12100.5255,N,0.0000,E,1434953.6,000.0,010100,,,A*56
$GPRMC,065402.000,A,12100.5255,N,0.0000,E,1434953.6,000.0,010100,,,A*55
$GPRMC,065403.000,A,12100.5255,N,0.0000,E,1434953.6,000.0,010100,,,A*54
$GPRMC,065404.000,A,12100.5255,N,0.0000,E,1434953.6,000.0,010100,,,A*53
$GPRMC,065405.000,A,12100.5255,N,0.0000,E,1434953.6,000.0,010100,,,A*52
$GPRMC,065406.000,A,12100.5255,N,0.0000,E,1434953.6,000.0,010100,,,A*51
$GPRMC,065407.000,A,12100.5255,N,0.0000,E,1434953.6,000.0,010100,,,A*50
$GPRMC,065408.000,A,12100.5255,N,0.0000,E,1434953.6,000.0,010100,,,A*5f
$GPRMC,065409.000,A,12100.5255,N,0.0000,E,1434953.6,000.0,010100,,,A*5e
$GPRMC,065410.000,A,12100.5255,N,0.0000,E,1434953.6,000.0,010100,,,A*56
$GPRMC,065411.000,A,12100.5255,N,0.0000,E,1434953.6,000.0,010100,,,A*57
$GPRMC,065412.000,A,12100.5255,N,0.0000,E,1434953.6,000.0,010100,,,A*54
$GPRMC,065413.000,A,12100.5255,N,0.0000,E,1434953.6,000.0,010100,,,A*55
$GPRMC,065414.000,A,12100.5255,N,0.0000,E,1434953.6,000.0,010100,,,A*52
$GPRMC,065415.000,A,12100.5255,N,0.0000,E,1434953.6,000.0,010100,,,A*53
$GPRMC,065416.000,A,12100.5255,N,0.0000,E,1434953.6,000.0,010100,,,A*50
$GPRMC,065417.000,A,12100.5255,N,0.0000,E,1434953.6,000.0,010100,,,A*51
$GPRMC,065418.000,A,12100.5255,N,0.0000,E,1434953.6,000.0,010100,,,A*5e
$GPRMC,065419.000,A,12100.5255,N,0.0000,E,1434953.6,000.0,010100,,,A*5f
$GPRMC,065420.000,A,12100.5255,N,0.0000,E,1434953.6,000.0,010100,,,A*55
$GPRMC,065421.000,A,12100.5255,N,0.0000,E,1434953.6,000.0,010100,,,A*54
$GPRMC,065422.000,A,12100.5258,N,0.0000,E,1434953.0,000.0,010100,,,A*5c
$GPRMC,065423.000,A,12100.5258,N,0.0000,E,1434953.0,000.0,010100,,,A*5d
$GPRMC,065424.000,A,12100.5258,N,0.0000,E,1434953.0,000.0,010100,,,A*5a
$GPRMC,065425.000,A,12100.5258,N,0.0000,E,1434953.0,000.0,010100,,,A*5b
$GPRMC,065426.000,A,12100.5258,N,0.0000,E,1434953.0,000.0,010100,,,A*58
$GPRMC,065427.000,A,12100.5258,N,0.0000,E,1434953.0,000.0,010100,,,A*59
$GPRMC,065428.000,A,12100.5258,N,0.0000,E,1434953.0,000.0,010100,,,A*56
$GPRMC,065429.000,A,12100.5258,N,0.0000,E,1434953.0,000.0,010100,,,A*57
$GPRMC,065430.000,A,12100.5258,N,0.0000,E,1434953.0,000.0,010100,,,A*5f
$GPRMC,065431.000,A,12100.5258,N,0.0000,E,1434953.0,000.0,010100,,,A*5e
$GPRMC,065432.000,A,12100.5258,N,0.0000,E,1434953.0,000.0,010100,,,A*5d
$GPRMC,065437.000,A,12100.5258,N,5700.0000,E,1434953.0,000.0,010100,,,A*6a
$GPRMC,065438.000,A,12100.5231,N,4000.0000,E,1434953.6,000.0,010100,,,A*6a
$GPRMC,065439.000,A,12100.5222,N,2500.0000,E,1434953.6,000.0,010100,,,A*6a
$GPRMC,065440.000,A,12100.5209,N,1500.0000,E,1434954.1,000.0,010100,,,A*6e
$GPRMC,065441.000,A,12100.5207,N,900.0000,E,1434954.1,000.0,010100,,,A*5c
$GPRMC,065442.000,A,12100.5204,N,500.0000,E,1434954.1,000.0,010100,,,A*50
$GPRMC,065443.000,A,12100.5201,N,200.0000,E,1434955.1,000.0,010100,,,A*52
$GPRMC,065444.000,A,12100.5203,N,0.0000,E,1434955.7,000.0,010100,,,A*53
$GPRMC,065445.000,A,12100.5202,N,0.0000,E,1434956.2,000.0,010100,,,A*55
$GPRMC,065446.000,A,12100.5204,N,0.0000,E,1434956.7,000.0,010100,,,A*55
$GPRMC,065447.000,A,12100.5206,N,0.0000,E,1434956.7,000.0,010100,,,A*56
$GPRMC,065448.000,A,12100.5203,N,0.0000,E,1434957.3,000.0,010100,,,A*59
$GPRMC,065449.000,A,12100.5205,N,0.0000,E,1434957.3,000.0,010100,,,A*5e
$GPRMC,065450.000,A,12100.5207,N,0.0000,E,1434957.3,000.0,010100,,,A*54
$GPRMC,065451.000,A,12100.5204,N,0.0000,E,1434957.8,000.0,010100,,,A*5d
$GPRMC,065452.000,A,12100.5204,N,0.0000,E,1434957.8,000.0,010100,,,A*5e
$GPRMC,065453.000,A,12100.5206,N,0.0000,E,1434957.8,000.0,010100,,,A*5d
$GPRMC,065454.000,A,12100.5206,N,0.0000,E,1434957.8,000.0,010100,,,A*5a
$GPRMC,065455.000,A,12100.5206,N,0.0000,E,1434957.8,000.0,010100,,,A*5b
$GPRMC,065456.000,A,12100.5206,N,0.0000,E,1434957.8,000.0,010100,,,A*58
$GPRMC,065457.000,A,12100.5206,N,0.0000,E,1434957.8,000.0,010100,,,A*59
$GPRMC,065458.000,A,12100.5206,N,0.0000,E,1434957.8,000.0,010100,,,A*56
$GPRMC,065459.000,A,12100.5206,N,0.0000,E,1434957.8,000.0,010100,,,A*57
$GPRMC,065500.000,A,12100.5206,N,0.0000,E,1434957.8,000.0,010100,,,A*5a
$GPRMC,065501.000,A,12100.5206,N,0.0000,E,1434957.8,000.0,010100,,,A*5b
$GPRMC,065502.000,A,12100.5206,N,0.0000,E,1434957.8,000.0,010100,,,A*58
$GPRMC,065503.000,A,12100.5206,N,0.0000,E,1434957.8,000.0,010100,,,A*59
$GPRMC,065504.000,A,12100.5206,N,0.0000,E,1434957.8,000.0,010100,,,A*5e
$GPRMC,065505.000,A,12100.5206,N,0.0000,E,1434957.8,000.0,010100,,,A*5f
$GPRMC,065506.000,A,12100.5206,N,0.0000,E,1434957.8,000.0,010100,,,A*5c
$GPRMC,065507.000,A,12100.5206,N,0.0000,E,1434957.8,000.0,010100,,,A*5d
$GPRMC,065508.000,A,12100.5206,N,0.0000,E,1434957.8,000.0,010100,,,A*52
$GPRMC,065509.000,A,12100.5206,N,0.0000,E,1434957.8,000.0,010100,,,A*53
$GPRMC,065510.000,A,12100.5206,N,0.0000,E,1434957.8,000.0,010100,,,A*5b
$GPRMC,065511.000,A,12100.5206,N,0.0000,E,1434957.8,000.0,010100,,,A*5a
$GPRMC,065512.000,A,12100.5206,N,0.0000,E,1434957.8,000.0,010100,,,A*59
$GPRMC,065513.000,A,12100.5206,N,0.0000,E,1434957.8,000.0,010100,,,A*58
$GPRMC,065514.000,A,12100.5206,N,0.0000,E,1434957.8,000.0,010100,,,A*5f
$GPRMC,065515.000,A,12100.5206,N,0.0000,E,1434957.8,000.0,010100,,,A*5e
$GPRMC,065516.000,A,12100.5205,N,0.0000,E,1434960.0,000.0,010100,,,A*52
$GPRMC,065517.000,A,12100.5205,N,0.0000,E,1434960.0,000.0,010100,,,A*53
$GPRMC,065518.000,A,12100.5205,N,0.0000,E,1434960.0,000.0,010100,,,A*5c
$GPRMC,065519.000,A,12100.5205,N,0.0000,E,1434960.0,000.0,010100,,,A*5d
$GPRMC,065520.000,A,12100.5205,N,0.0000,E,1434960.0,000.0,010100,,,A*57
$GPRMC,065521.000,A,12100.5205,N,0.0000,E,1434960.0,000.0,010100,,,A*56
$GPRMC,065522.000,A,12100.5205,N,0.0000,E,1434960.0,000.0,010100,,,A*55
$GPRMC,065523.000,A,12100.5205,N,0.0000,E,1434960.0,000.0,010100,,,A*54
$GPRMC,065524.000,A,12100.5205,N,0.0000,E,1434960.0,000.0,010100,,,A*53
$GPRMC,065525.000,A,12100.5205,N,0.0000,E,1434960.0,000.0,010100,,,A*52
$GPRMC,065526.000,A,12100.5205,N,0.0000,E,1434960.0,000.0,010100,,,A*51
$GPRMC,065527.000,A,12100.5205,N,0.0000,E,1434960.0,000.0,010100,,,A*50
$GPRMC,065528.000,A,12100.5205,N,0.0000,E,1434960.0,000.0,010100,,,A*5f
$GPRMC,065529.000,A,12100.5205,N,0.0000,E,1434960.0,000.0,010100,,,A*5e
$GPRMC,065530.000,A,12100.5205,N,0.0000,E,1434960.0,000.0,010100,,,A*56
$GPRMC,065531.000,A,12100.5205,N,0.0000,E,1434960.0,000.0,010100,,,A*57
$GPRMC,065532.000,A,12100.5205,N,0.0000,E,1434960.0,000.0,010100,,,A*54
$GPRMC,065533.000,A,12100.5205,N,0.0000,E,1434960.0,000.0,010100,,,A*55
$GPRMC,065534.000,A,12100.5205,N,0.0000,E,1434960.0,000.0,010100,,,A*52
$GPRMC,065535.000,A,12100.5205,N,0.0000,E,1434960.0,000.0,010100,,,A*53
$GPRMC,065536.000,A,12100.5205,N,0.0000,E,1434960.0,000.0,010100,,,A*50
$GPRMC,065537.000,A,12100.5205,N,0.0000,E,1434960.0,000.0,010100,,,A*51
$GPRMC,065538.000,A,12100.5205,N,0.0000,E,1434960.0,000.0,010100,,,A*5e
$GPRMC,065543.000,A,12100.5208,N,5600.0000,E,1434960.6,000.0,010100,,,A*6a
$GPRMC,065544.000,A,12100.5177,N,3800.0000,E,1434961.6,000.0,010100,,,A*6f
$GPRMC,065545.000,A,12100.5162,N,2400.0000,E,1434962.2,000.0,010100,,,A*60
$GPRMC,065546.000,A,12100.5147,N,1400.0000,E,1434962.2,000.0,010100,,,A*67
$GPRMC,065547.000,A,12100.5140,N,800.0000,E,1434962.2,000.0,010100,,,A*5c
$GPRMC,065548.000,A,12100.5134,N,400.0000,E,1434962.2,000.0,010100,,,A*5c
$GPRMC,065549.000,A,12100.5133,N,0.0000,E,1434963.2,000.0,010100,,,A*5f
$GPRMC,065550.000,A,12100.5134,N,0.0000,E,1434963.8,000.0,010100,,,A*5a
$GPRMC,065551.000,A,12100.5133,N,0.0000,E,1434964.3,000.0,010100,,,A*50
$GPRMC,065552.000,A,12100.5135,N,0.0000,E,1434964.3,000.0,010100,,,A*55
$GPRMC,065553.000,A,12100.5134,N,0.0000,E,1434964.8,000.0,010100,,,A*5e
$GPRMC,065554.000,A,12100.5133,N,0.0000,E,1434965.5,000.0,010100,,,A*52
$GPRMC,065555.000,A,12100.5137,N,0.0000,E,1434965.5,000.0,010100,,,A*57
$GPRMC,065556.000,A,12100.5140,N,0.0000,E,1434966.0,000.0,010100,,,A*52
$GPRMC,065557.000,A,12100.5138,N,0.0000,E,1434966.5,000.0,010100,,,A*59
$GPRMC,065558.000,A,12100.5270,N,0.0000,E,1434947.6,000.0,010100,,,A*59
$GPRMC,065559.000,A,12100.5272,N,0.0000,E,1434946.5,000.0,010100,,,A*58
$GPRMC,065600.000,A,12100.5272,N,0.0000,E,1434946.5,000.0,010100,,,A*57
$GPRMC,065601.000,A,12100.5272,N,0.0000,E,1434946.5,000.0,010100,,,A*56
$GPRMC,065602.000,A,12100.5272,N,0.0000,E,1434946.5,000.0,010100,,,A*55
$GPRMC,065603.000,A,12100.5272,N,0.0000,E,1434946.5,000.0,010100,,,A*54
$GPRMC,065604.000,A,12100.5272,N,0.0000,E,1434946.5,000.0,010100,,,A*53
$GPRMC,065605.000,A,12100.5272,N,0.0000,E,1434946.5,000.0,010100,,,A*52
$GPRMC,065606.000,A,12100.5272,N,0.0000,E,1434946.5,000.0,010100,,,A*51
$GPRMC,065607.000,A,12100.5272,N,0.0000,E,1434946.5,000.0,010100,,,A*50
$GPRMC,065608.000,A,12100.5272,N,0.0000,E,1434946.5,000.0,010100,,,A*5f
$GPRMC,065609.000,A,12100.5272,N,0.0000,E,1434946.5,000.0,010100,,,A*5e
$GPRMC,065610.000,A,12100.5272,N,0.0000,E,1434946.5,000.0,010100,,,A*56
$GPRMC,065611.000,A,12100.5272,N,0.0000,E,1434946.5,000.0,010100,,,A*57
$GPRMC,065612.000,A,12100.5269,N,0.0000,E,1434946.0,000.0,010100,,,A*5b
$GPRMC,065613.000,A,12100.5269,N,0.0000,E,1434946.0,000.0,010100,,,A*5a
$GPRMC,065614.000,A,12100.5269,N,0.0000,E,1434946.0,000.0,010100,,,A*5d
$GPRMC,065615.000,A,12100.5269,N,0.0000,E,1434946.0,000.0,010100,,,A*5c
$GPRMC,065616.000,A,12100.5269,N,0.0000,E,1434946.0,000.0,010100,,,A*5f
$GPRMC,065617.000,A,12100.5269,N,0.0000,E,1434946.0,000.0,010100,,,A*5e
$GPRMC,065618.000,A,12100.5269,N,0.0000,E,1434946.0,000.0,010100,,,A*51
$GPRMC,065619.000,A,12100.5269,N,0.0000,E,1434946.0,000.0,010100,,,A*50
$GPRMC,065620.000,A,12100.5269,N,0.0000,E,1434946.0,000.0,010100,,,A*5a
$GPRMC,065621.000,A,12100.5269,N,0.0000,E,1434946.0,000.0,010100,,,A*5b
$GPRMC,065622.000,A,12100.5269,N,0.0000,E,1434946.0,000.0,010100,,,A*58
$GPRMC,065623.000,A,12100.5269,N,0.0000,E,1434946.0,000.0,010100,,,A*59
$GPRMC,065624.000,A,12100.5269,N,0.0000,E,1434946.0,000.0,010100,,,A*5e
$GPRMC,065625.000,A,12100.5269,N,0.0000,E,1434946.0,000.0,010100,,,A*5f
$GPRMC,065626.000,A,12100.5269,N,0.0000,E,1434946.0,000.0,010100,,,A*5c
$GPRMC,065627.000,A,12100.5269,N,0.0000,E,1434946.0,000.0,010100,,,A*5d
$GPRMC,065628.000,A,12100.5269,N,0.0000,E,1434946.0,000.0,010100,,,A*52
$GPRMC,065629.000,A,12100.5269,N,0.0000,E,1434946.0,000.0,010100,,,A*53
$GPRMC,065630.000,A,12100.5269,N,0.0000,E,1434946.0,000.0,010100,,,A*5b
$GPRMC,065631.000,A,12100.5269,N,0.0000,E,1434946.0,000.0,010100,,,A*5a
$GPRMC,065632.000,A,12100.5269,N,0.0000,E,1434946.0,000.0,010100,,,A*59
$GPRMC,065633.000,A,12100.5269,N,0.0000,E,1434946.0,000.0,010100,,,A*58
$GPRMC,065634.000,A,12100.5269,N,0.0000,E,1434946.0,000.0,010100,,,A*5f
$GPRMC,065635.000,A,12100.5269,N,0.0000,E,1434946.0,000.0,010100,,,A*5e
$GPRMC,065636.000,A,12100.5269,N,0.0000,E,1434946.0,000.0,010100,,,A*5d
$GPRMC,065637.000,A,12100.5269,N,0.0000,E,1434946.0,000.0,010100,,,A*5c
$GPRMC,065638.000,A,12100.5269,N,0.0000,E,1434946.0,000.0,010100,,,A*53
$GPRMC,065639.000,A,12100.5269,N,0.0000,E,1434946.0,000.0,010100,,,A*52
$GPRMC,065640.000,A,12100.5265,N,0.0000,E,1434947.1,000.0,010100,,,A*50
$GPRMC,065641.000,A,12100.5265,N,0.0000,E,1434947.1,000.0,010100,,,A*51
$GPRMC,065642.000,A,12100.5265,N,0.0000,E,1434947.1,000.0,010100,,,A*52
$GPRMC,065643.000,A,12100.5265,N,0.0000,E,1434947.1,000.0,010100,,,A*53
$GPRMC,065644.000,A,12100.5265,N,0.0000,E,1434947.1,000.0,010100,,,A*54
$GPRMC,065649.000,A,12100.5265,N,5100.0000,E,1434947.1,000.0,010100,,,A*6d
$GPRMC,065650.000,A,12100.5244,N,3400.0000,E,1434946.5,000.0,010100,,,A*60
$GPRMC,065651.000,A,12100.5225,N,2100.0000,E,1434946.5,000.0,010100,,,A*62
$GPRMC,065652.000,A,12100.5215,N,1200.0000,E,1434946.5,000.0,010100,,,A*62
$GPRMC,065653.000,A,12100.5207,N,700.0000,E,1434946.0,000.0,010100,,,A*51
$GPRMC,065654.000,A,12100.5206,N,400.0000,E,1434946.5,000.0,010100,,,A*51
$GPRMC,065655.000,A,12100.5203,N,200.0000,E,1434947.6,000.0,010100,,,A*51
$GPRMC,065656.000,A,12100.5202,N,0.0000,E,1434948.1,000.0,010100,,,A*59
$GPRMC,065657.000,A,12100.5201,N,0.0000,E,1434948.7,000.0,010100,,,A*5d
$GPRMC,065658.000,A,12100.5203,N,0.0000,E,1434949.2,000.0,010100,,,A*54
$GPRMC,065659.000,A,12100.5205,N,0.0000,E,1434949.2,000.0,010100,,,A*53
$GPRMC,065700.000,A,12100.5202,N,0.0000,E,1434949.7,000.0,010100,,,A*5c
$GPRMC,065701.000,A,12100.5204,N,0.0000,E,1434949.7,000.0,010100,,,A*5b
$GPRMC,065702.000,A,12100.5206,N,0.0000,E,1434949.7,000.0,010100,,,A*5a
$GPRMC,065703.000,A,12100.5206,N,0.0000,E,1434949.7,000.0,010100,,,A*5b
$GPRMC,065704.000,A,12100.5203,N,0.0000,E,1434950.3,000.0,010100,,,A*55
$GPRMC,065705.000,A,12100.5205,N,0.0000,E,1434950.3,000.0,010100,,,A*52
$GPRMC,065706.000,A,12100.5205,N,0.0000,E,1434950.3,000.0,010100,,,A*51
$GPRMC,065707.000,A,12100.5205,N,0.0000,E,1434950.3,000.0,010100,,,A*50
$GPRMC,065708.000,A,12100.5207,N,0.0000,E,1434950.8,000.0,010100,,,A*56
$GPRMC,065709.000,A,12100.5207,N,0.0000,E,1434950.8,000.0,010100,,,A*57
$GPRMC,065710.000,A,12100.5207,N,0.0000,E,1434950.8,000.0,010100,,,A*5f
$GPRMC,065711.000,A,12100.5207,N,0.0000,E,1434950.8,000.0,010100,,,A*5e
$GPRMC,065712.000,A,12100.5207,N,0.0000,E,1434950.8,000.0,010100,,,A*5d
$GPRMC,065713.000,A,12100.5207,N,0.0000,E,1434950.8,000.0,010100,,,A*5c
$GPRMC,065714.000,A,12100.5207,N,0.0000,E,1434950.8,000.0,010100,,,A*5b
$GPRMC,065715.000,A,12100.5207,N,0.0000,E,1434950.8,000.0,010100,,,A*5a
$GPRMC,065716.000,A,12100.5207,N,0.0000,E,1434950.8,000.0,010100,,,A*59
$GPRMC,065717.000,A,12100.5207,N,0.0000,E,1434950.8,000.0,010100,,,A*58
$GPRMC,065718.000,A,12100.5207,N,0.0000,E,1434950.8,000.0,010100,,,A*57
$GPRMC,065719.000,A,12100.5207,N,0.0000,E,1434950.8,000.0,010100,,,A*56
$GPRMC,065720.000,A,12100.5207,N,0.0000,E,1434950.8,000.0,010100,,,A*5c
$GPRMC,065721.000,A,12100.5207,N,0.0000,E,1434950.8,000.0,010100,,,A*5d
$GPRMC,065722.000,A,12100.5207,N,0.0000,E,1434950.8,000.0,010100,,,A*5e
$GPRMC,065723.000,A,12100.5207,N,0.0000,E,1434950.8,000.0,010100,,,A*5f
$GPRMC,065724.000,A,12100.5207,N,0.0000,E,1434950.8,000.0,010100,,,A*58
$GPRMC,065725.000,A,12100.5207,N,0.0000,E,1434950.8,000.0,010100,,,A*59
$GPRMC,065726.000,A,12100.5207,N,0.0000,E,1434950.8,000.0,010100,,,A*5a
$GPRMC,065727.000,A,12100.5207,N,0.0000,E,1434950.8,000.0,010100,,,A*5b
$GPRMC,065728.000,A,12100.5207,N,0.0000,E,1434950.8,000.0,010100,,,A*54
$GPRMC,065729.000,A,12100.5207,N,0.0000,E,1434950.8,000.0,010100,,,A*55
$GPRMC,065730.000,A,12100.5207,N,0.0000,E,1434950.8,000.0,010100,,,A*5d
$GPRMC,065731.000,A,12100.5207,N,0.0000,E,1434950.8,000.0,010100,,,A*5c
$GPRMC,065732.000,A,12100.5207,N,0.0000,E,1434950.8,000.0,010100,,,A*5f
$GPRMC,065733.000,A,12100.5207,N,0.0000,E,1434950.8,000.0,010100,,,A*5e
$GPRMC,065734.000,A,12100.5207,N,0.0000,E,1434950.8,000.0,010100,,,A*59
$GPRMC,065735.000,A,12100.5207,N,0.0000,E,1434950.8,000.0,010100,,,A*58
$GPRMC,065736.000,A,12100.5207,N,0.0000,E,1434950.8,000.0,010100,,,A*5b
$GPRMC,065737.000,A,12100.5210,N,0.0000,E,1434954.1,000.0,010100,,,A*51
$GPRMC,065738.000,A,12100.5210,N,0.0000,E,1434954.1,000.0,010100,,,A*5e
$GPRMC,065739.000,A,12100.5210,N,0.0000,E,1434954.1,000.0,010100,,,A*5f
$GPRMC,065740.000,A,12100.5210,N,0.0000,E,1434954.1,000.0,010100,,,A*51
$GPRMC,065741.000,A,12100.5210,N,0.0000,E,1434954.1,000.0,010100,,,A*50
$GPRMC,065742.000,A,12100.5210,N,0.0000,E,1434954.1,000.0,010100,,,A*53
$GPRMC,065747.000,A,12100.5209,N,4800.0000,E,1434954.1,000.0,010100,,,A*62
$GPRMC,065748.000,A,12100.5185,N,3200.0000,E,1434953.6,000.0,010100,,,A*67
$GPRMC,065749.000,A,12100.5177,N,2200.0000,E,1434953.6,000.0,010100,,,A*6a
$GPRMC,065750.000,A,12100.5167,N,1300.0000,E,1434953.6,000.0,010100,,,A*61
$GPRMC,065751.000,A,12100.5159,N,600.0000,E,1434953.6,000.0,010100,,,A*59
$GPRMC,065752.000,A,12100.5156,N,300.0000,E,1434954.6,000.0,010100,,,A*57
$GPRMC,065753.000,A,12100.5156,N,0.0000,E,1434955.7,000.0,010100,,,A*55
$GPRMC,065754.000,A,12100.5158,N,0.0000,E,1434955.7,000.0,010100,,,A*5c
$GPRMC,065755.000,A,12100.5156,N,0.0000,E,1434956.2,000.0,010100,,,A*55
$GPRMC,065756.000,A,12100.5159,N,0.0000,E,1434956.7,000.0,010100,,,A*5c
$GPRMC,065757.000,A,12100.5155,N,0.0000,E,1434956.7,000.0,010100,,,A*51
$GPRMC,065758.000,A,12100.5158,N,0.0000,E,1434957.3,000.0,010100,,,A*56
$GPRMC,065759.000,A,12100.5159,N,0.0000,E,1434957.3,000.0,010100,,,A*56
$GPRMC,065800.000,A,12100.5156,N,0.0000,E,1434957.3,000.0,010100,,,A*5a
$GPRMC,065801.000,A,12100.5159,N,0.0000,E,1434957.8,000.0,010100,,,A*5f
$GPRMC,065802.000,A,12100.5155,N,0.0000,E,1434957.8,000.0,010100,,,A*50
$GPRMC,065803.000,A,12100.5155,N,0.0000,E,1434957.8,000.0,010100,,,A*51
$GPRMC,065804.000,A,12100.5155,N,0.0000,E,1434957.8,000.0,010100,,,A*56
$GPRMC,065805.000,A,12100.5155,N,0.0000,E,1434957.8,000.0,010100,,,A*57
$GPRMC,065806.000,A,12100.5155,N,0.0000,E,1434957.8,000.0,010100,,,A*54
$GPRMC,065807.000,A,12100.5158,N,0.0000,E,1434959.0,000.0,010100,,,A*5e
$GPRMC,065808.000,A,12100.5158,N,0.0000,E,1434959.0,000.0,010100,,,A*51
$GPRMC,065809.000,A,12100.5158,N,0.0000,E,1434959.0,000.0,010100,,,A*50
$GPRMC,065810.000,A,12100.5158,N,0.0000,E,1434959.0,000.0,010100,,,A*58
$GPRMC,065811.000,A,12100.5158,N,0.0000,E,1434959.0,000.0,010100,,,A*59
$GPRMC,065812.000,A,12100.5158,N,0.0000,E,1434959.0,000.0,010100,,,A*5a
$GPRMC,065813.000,A,12100.5158,N,0.0000,E,1434959.0,000.0,010100,,,A*5b
$GPRMC,065814.000,A,12100.5158,N,0.0000,E,1434959.0,000.0,010100,,,A*5c
$GPRMC,065815.000,A,12100.5158,N,0.0000,E,1434959.0,000.0,010100,,,A*5d
$GPRMC,065816.000,A,12100.5158,N,0.0000,E,1434959.0,000.0,010100,,,A*5e
$GPRMC,065817.000,A,12100.5158,N,0.0000,E,1434959.0,000.0,010100,,,A*5f
$GPRMC,065818.000,A,12100.5158,N,0.0000,E,1434959.0,000.0,010100,,,A*50
$GPRMC,065819.000,A,12100.5158,N,0.0000,E,1434959.0,000.0,010100,,,A*51
$GPRMC,065820.000,A,12100.5158,N,0.0000,E,1434959.0,000.0,010100,,,A*5b
$GPRMC,065821.000,A,12100.5158,N,0.0000,E,1434959.0,000.0,010100,,,A*5a
$GPRMC,065822.000,A,12100.5158,N,0.0000,E,1434959.0,000.0,010100,,,A*59
$GPRMC,065823.000,A,12100.5158,N,0.0000,E,1434959.0,000.0,010100,,,A*58
$GPRMC,065824.000,A,12100.5158,N,0.0000,E,1434959.0,000.0,010100,,,A*5f
$GPRMC,065825.000,A,12100.5158,N,0.0000,E,1434959.0,000.0,010100,,,A*5e
$GPRMC,065826.000,A,12100.5158,N,0.0000,E,1434959.0,000.0,010100,,,A*5d
$GPRMC,065827.000,A,12100.5158,N,0.0000,E,1434959.0,000.0,010100,,,A*5c
$GPRMC,065828.000,A,12100.5158,N,0.0000,E,1434959.0,000.0,010100,,,A*53
$GPRMC,065829.000,A,12100.5158,N,0.0000,E,1434959.0,000.0,010100,,,A*52
$GPRMC,065830.000,A,12100.5158,N,0.0000,E,1434959.0,000.0,010100,,,A*5a
$GPRMC,065831.000,A,12100.5158,N,0.0000,E,1434959.0,000.0,010100,,,A*5b
$GPRMC,065832.000,A,12100.5158,N,0.0000,E,1434959.0,000.0,010100,,,A*58
$GPRMC,065833.000,A,12100.5158,N,0.0000,E,1434959.0,000.0,010100,,,A*59
$GPRMC,065834.000,A,12100.5158,N,0.0000,E,1434959.0,000.0,010100,,,A*5e
$GPRMC,065835.000,A,12100.5158,N,0.0000,E,1434959.0,000.0,010100,,,A*5f
$GPRMC,065836.000,A,12100.5243,N,0.0000,E,1434946.5,000.0,010100,,,A*5e
$GPRMC,065837.000,A,12100.5243,N,0.0000,E,1434946.5,000.0,010100,,,A*5f
$GPRMC,065842.000,A,12100.5243,N,4500.0000,E,1434946.5,000.0,010100,,,A*6c
$GPRMC,065843.000,A,12100.5228,N,3100.0000,E,1434946.5,000.0,010100,,,A*63
$GPRMC,065844.000,A,12100.5218,N,1900.0000,E,1434946.0,000.0,010100,,,A*68
$GPRMC,065845.000,A,12100.5216,N,1200.0000,E,1434946.0,000.0,010100,,,A*6c
$GPRMC,065846.000,A,12100.5215,N,800.0000,E,1434946.5,000.0,010100,,,A*52
